[{"Id":"XsXLVWr1UZWVhKThNvNiaA","Name":"Blue Willow \u591c\u6765\u6e58","Cuisine":"Chinese","Address":"40 W 56th St New York, NY 10019","Coordinates":"{'latitude': 40.76292, 'longitude': -73.976546}","ReviewCount":"969","Rating":"4.5","ZipCode":""},{"Id":"BNaveJmi-OUGKG9sRfrIhA","Name":"Mr. Sun","Cuisine":"Chinese","Address":"48 W 48th St New York, NY 10036","Coordinates":"{'latitude': 40.75809, 'longitude': -73.98026}","ReviewCount":"251","Rating":"4.5","ZipCode":""},{"Id":"R2OiJx2vW67hLbNu4w2TqQ","Name":"Chef Guo","Cuisine":"Chinese","Address":"135 E 50th St New York, NY 10022","Coordinates":"{'latitude': 40.75636, 'longitude': -73.97177}","ReviewCount":"1","Rating":"5.0","ZipCode":""},{"Id":"iXH9H75idkSB-Eudo5ABhg","Name":"Tang By Mr. Sun","Cuisine":"Chinese","Address":"1442 3rd Ave New York, NY 10028","Coordinates":"{'latitude': 40.77614, 'longitude': -73.95616}","ReviewCount":"18","Rating":"4.5","ZipCode":""},{"Id":"h0pRCiJDrCN7tm3VX5tILQ","Name":"CHILI","Cuisine":"Chinese","Address":"13 E 37th St New York, NY 10016","Coordinates":"{'latitude': 40.75002, 'longitude': -73.98215}","ReviewCount":"703","Rating":"4.5","ZipCode":""},{"Id":"bVkjBJlAIwKAj9Aw1KVWjA","Name":"Dim Sum Palace","Cuisine":"Chinese","Address":"334 W 46th St New York, NY 10036","Coordinates":"{'latitude': 40.76015, 'longitude': -73.9893699}","ReviewCount":"1717","Rating":"4.0","ZipCode":""},{"Id":"qrncvjkiKN5Z-JC06ygy6A","Name":"Hutong New York","Cuisine":"Chinese","Address":"Inside Beacon Courtyard New York, NY 10022","Coordinates":"{'latitude': 40.761551, 'longitude': -73.967443}","ReviewCount":"536","Rating":"3.5","ZipCode":""},{"Id":"83zDAk03lFXkgImgkLhT9w","Name":"Chi Restaurant & Bar","Cuisine":"Chinese","Address":"492 9th Ave New York, NY 10018","Coordinates":"{'latitude': 40.75547, 'longitude': -73.99439}","ReviewCount":"91","Rating":"4.5","ZipCode":""},{"Id":"ojbH3wnRu050hRhkmoxRiA","Name":"Han Dynasty","Cuisine":"Chinese","Address":"215 W 85th St New York, NY 10024","Coordinates":"{'latitude': 40.78752, 'longitude': -73.97647}","ReviewCount":"712","Rating":"4.0","ZipCode":""},{"Id":"wfhMIiMh2A2psCGONOVSlg","Name":"Han Dynasty","Cuisine":"Chinese","Address":"90 3rd Ave New York, NY 10003","Coordinates":"{'latitude': 40.732072, 'longitude': -73.988074}","ReviewCount":"1359","Rating":"4.0","ZipCode":""},{"Id":"4FD0TAxe70nb3ngk3sXF9Q","Name":"Uluh","Cuisine":"Chinese","Address":"152 2nd Ave Ste A New York, NY 10003","Coordinates":"{'latitude': 40.7293403, 'longitude': -73.9866071}","ReviewCount":"905","Rating":"4.5","ZipCode":""},{"Id":"0CjK3esfpFcxIopebzjFxA","Name":"Joe's Shanghai","Cuisine":"Chinese","Address":"46 Bowery St New York, NY 10013","Coordinates":"{'latitude': 40.7156608, 'longitude': -73.9967012}","ReviewCount":"7239","Rating":"4.0","ZipCode":""},{"Id":"xq0cX_DgxiJMXwhmEl9kUA","Name":"Caf\u00e9 China","Cuisine":"Chinese","Address":"59 W 37th St New York, NY 10018","Coordinates":"{'latitude': 40.751587, 'longitude': -73.985815}","ReviewCount":"1920","Rating":"4.0","ZipCode":""},{"Id":"FXhSEZfIqjMZh4hR0_8jMQ","Name":"China Xiang \u4e2d\u56fd\u6e58","Cuisine":"Chinese","Address":"360 W 42nd Street New York, NY 10036","Coordinates":"{'latitude': 40.7582902125633, 'longitude': -73.9925113993899}","ReviewCount":"550","Rating":"4.0","ZipCode":""},{"Id":"sRWRA4dcN_NR1JGpuRVouA","Name":"Nan Xiang Xiao Long Bao - Manhattan","Cuisine":"Chinese","Address":"24 W 33rd St New York, NY 10001","Coordinates":"{'latitude': 40.74822527534694, 'longitude': -73.9857786}","ReviewCount":"737","Rating":"4.5","ZipCode":""},{"Id":"oowNI_aUmGEFa_VW8BFgRg","Name":"Tri Dim Shanghai","Cuisine":"Chinese","Address":"1378 3rd Ave New York, NY 10075","Coordinates":"{'latitude': 40.773951, 'longitude': -73.957927}","ReviewCount":"539","Rating":"4.0","ZipCode":""},{"Id":"ZWP7yq9C2bhCcLkMR9BmVw","Name":"Mala Project","Cuisine":"Chinese","Address":"245 East 53rd St New York, NY 10022","Coordinates":"{'latitude': 40.75714784759798, 'longitude': -73.96769121739368}","ReviewCount":"86","Rating":"4.5","ZipCode":""},{"Id":"0vg2Z-HPwkyVVX613j2ysg","Name":"Peng's Noodle Folk","Cuisine":"Chinese","Address":"1016 Lexington Ave New York, NY 10021","Coordinates":"{'latitude': 40.7711335538802, 'longitude': -73.9620354269869}","ReviewCount":"562","Rating":"4.5","ZipCode":""},{"Id":"WVsPyl-DGRu0O_rQYdIMVQ","Name":"The Best Sichuan","Cuisine":"Chinese","Address":"47 W 39th St New York, NY 10018","Coordinates":"{'latitude': 40.75266, 'longitude': -73.98459}","ReviewCount":"126","Rating":"4.5","ZipCode":""},{"Id":"0dDCDQz7DrKkSvu9h2hcQw","Name":"Chow House","Cuisine":"Chinese","Address":"181 Bleecker St New York, NY 10012","Coordinates":"{'latitude': 40.72915, 'longitude': -74.00072}","ReviewCount":"634","Rating":"4.5","ZipCode":""},{"Id":"R3UNnA8EbjhNWBHS0wJ0VA","Name":"Grand Sichuan Eastern","Cuisine":"Chinese","Address":"1049 2nd Ave New York, NY 10022","Coordinates":"{'latitude': 40.75831, 'longitude': -73.96636}","ReviewCount":"280","Rating":"3.5","ZipCode":""},{"Id":"jc7lVTvmYMIK5RNpENtS6w","Name":"Szechuan Mountain House","Cuisine":"Chinese","Address":"23 St Marks Pl New York, NY 10003","Coordinates":"{'latitude': 40.72911, 'longitude': -73.98858}","ReviewCount":"668","Rating":"4.5","ZipCode":""},{"Id":"A-ert0jDRBfku9ogyW_mEg","Name":"Spice Symphony","Cuisine":"Chinese","Address":"150 E 50th St New York, NY 10022","Coordinates":"{'latitude': 40.7558937072754, 'longitude': -73.9715347290039}","ReviewCount":"654","Rating":"4.5","ZipCode":""},{"Id":"1dFOF1HPaThSCsdiqR7DrA","Name":"Land of Plenty","Cuisine":"Chinese","Address":"204E 58th St New York, NY 10022","Coordinates":"{'latitude': 40.76063, 'longitude': -73.96664}","ReviewCount":"372","Rating":"3.5","ZipCode":""},{"Id":"LT0yyLNM84EiJj9DL0rfHA","Name":"Hui Restaurant & Bar","Cuisine":"Chinese","Address":"314 E 70th St New York, NY 10021","Coordinates":"{'latitude': 40.76701, 'longitude': -73.95846}","ReviewCount":"288","Rating":"4.5","ZipCode":""},{"Id":"Ece_DRuD1yQjRPJBAebRpw","Name":"Kung Fu Little Steamed Buns Ramen","Cuisine":"Chinese","Address":"146 E 55th St New York, NY 10022","Coordinates":"{'latitude': 40.7592514705491, 'longitude': -73.9694294705987}","ReviewCount":"391","Rating":"3.5","ZipCode":""},{"Id":"p4xNh2NAy85Br77XaomFOw","Name":"OOHU","Cuisine":"Chinese","Address":"128 W 36th St New York, NY 10018","Coordinates":"{'latitude': 40.751493955047785, 'longitude': -73.9883517}","ReviewCount":"33","Rating":"4.5","ZipCode":""},{"Id":"HR_a2QSA_KJZIakufAJUmg","Name":"Szechuan Gourmet","Cuisine":"Chinese","Address":"21 W 39th St New York, NY 10018","Coordinates":"{'latitude': 40.752347, 'longitude': -73.983559}","ReviewCount":"65","Rating":"4.5","ZipCode":""},{"Id":"QaolMEijS7L6eodSneOdng","Name":"Tri Dim Shanghai West","Cuisine":"Chinese","Address":"467 Columbus Ave New York, NY 10024","Coordinates":"{'latitude': 40.78412, 'longitude': -73.97368}","ReviewCount":"226","Rating":"4.0","ZipCode":""},{"Id":"Qwd4Tv-CqgO2Yl9zZgkKOQ","Name":"Shun Lee Palace","Cuisine":"Chinese","Address":"155 E 55th St New York, NY 10022","Coordinates":"{'latitude': 40.75945, 'longitude': -73.96907}","ReviewCount":"340","Rating":"3.0","ZipCode":""},{"Id":"lynQoI3w_pzYfHGeuUU-Qg","Name":"Shu Jiao Fu Zhou","Cuisine":"Chinese","Address":"295 Grand St New York, NY 10002","Coordinates":"{'latitude': 40.7174109, 'longitude': -73.99210041198651}","ReviewCount":"1316","Rating":"4.5","ZipCode":""},{"Id":"UK1oGbr8GU2rufpnJR4-HQ","Name":"Joe's Home of Soup Dumplings","Cuisine":"Chinese","Address":"7 E 48th St between Fifth and Madison avenues New York, NY 10017","Coordinates":"{'latitude': 40.75723, 'longitude': -73.97702}","ReviewCount":"494","Rating":"4.5","ZipCode":""},{"Id":"mUl0wtO7tPkBocuJqZ-7Dw","Name":"Dun Huang -  Grand Central","Cuisine":"Chinese","Address":"320 Lexington Ave New York, NY 10016","Coordinates":"{'latitude': 40.74922, 'longitude': -73.97785}","ReviewCount":"327","Rating":"4.5","ZipCode":""},{"Id":"wDuf4Qz9qsC62amLZgWNJQ","Name":"Little Alley","Cuisine":"Chinese","Address":"550 3rd Ave New York, NY 10016","Coordinates":"{'latitude': 40.74744, 'longitude': -73.97728}","ReviewCount":"534","Rating":"4.0","ZipCode":""},{"Id":"Q85ScF9s6vlS5_i453AFvg","Name":"Tangy Noodle","Cuisine":"Chinese","Address":"98 8th Ave New York, NY 10011","Coordinates":"{'latitude': 40.740203, 'longitude': -74.00193}","ReviewCount":"71","Rating":"4.5","ZipCode":""},{"Id":"oJ6fy4fBv_3WskxH4NfNBg","Name":"Chef Huang Jian Bing & Peking Duck","Cuisine":"Chinese","Address":"635 2nd Ave New York, NY 10016","Coordinates":"{'latitude': 40.74531205210646, 'longitude': -73.9757772}","ReviewCount":"75","Rating":"4.5","ZipCode":""},{"Id":"uaFHoq-a5XqxF-bsOK9_Qg","Name":"Real Kung Fu Little Steamed Buns Ramen","Cuisine":"Chinese","Address":"811 8th Ave New York, NY 10019","Coordinates":"{'latitude': 40.7616286634162, 'longitude': -73.98688}","ReviewCount":"1153","Rating":"4.0","ZipCode":""},{"Id":"ICNwlgXTrvFrGvaScUp8Ew","Name":"For U","Cuisine":"Chinese","Address":"155 3rd Ave New York, NY 10003","Coordinates":"{'latitude': 40.73415, 'longitude': -73.98633}","ReviewCount":"14","Rating":"5.0","ZipCode":""},{"Id":"GuzlMBKNoClNx5I1-x-DDg","Name":"53 NYC","Cuisine":"Chinese","Address":"53 W 53rd St New York, NY 10019","Coordinates":"{'latitude': 40.76179318437133, 'longitude': -73.9780863}","ReviewCount":"114","Rating":"4.0","ZipCode":""},{"Id":"l1nX-f46dmOEmYPoiuLSaw","Name":"Peking Duck House","Cuisine":"Chinese","Address":"236 E 53rd St New York, NY 10022","Coordinates":"{'latitude': 40.756912, 'longitude': -73.968109}","ReviewCount":"521","Rating":"3.5","ZipCode":""},{"Id":"TzhAlljC_843JO7UDDUIaQ","Name":"The Tang - Upper West Side","Cuisine":"Chinese","Address":"920 Amsterdam Ave New York, NY 10025","Coordinates":"{'latitude': 40.80006, 'longitude': -73.96639}","ReviewCount":"306","Rating":"4.5","ZipCode":""},{"Id":"1jAB_uaI8-P_wSqOo2S3KQ","Name":"Mazu Szechuan","Cuisine":"Chinese","Address":"495 3rd Ave New York, NY 10016","Coordinates":"{'latitude': 40.745234, 'longitude': -73.97812}","ReviewCount":"126","Rating":"4.5","ZipCode":""},{"Id":"8plXW6ZQI1awPu1scms3jQ","Name":"Silky Kitchen","Cuisine":"Chinese","Address":"138 W 46th St New York, NY 10036","Coordinates":"{'latitude': 40.757889, 'longitude': -73.984009}","ReviewCount":"78","Rating":"4.5","ZipCode":""},{"Id":"oe8GEFE4QLFAKt87y7zcgA","Name":"Very Fresh Noodles","Cuisine":"Chinese","Address":"409 W 15th St New York, NY 10011","Coordinates":"{'latitude': 40.74207, 'longitude': -74.00565}","ReviewCount":"1459","Rating":"4.5","ZipCode":""},{"Id":"X8ZS-dgiMIJvhwf9SaDnjw","Name":"Wah Fung No 1","Cuisine":"Chinese","Address":"79 Chrystie St New York, NY 10002","Coordinates":"{'latitude': 40.71735, 'longitude': -73.99457}","ReviewCount":"2017","Rating":"4.5","ZipCode":""},{"Id":"croh2zWlbPyCQTNS11klcg","Name":"China River \u5ddd\u805a\u9662","Cuisine":"Chinese","Address":"258 W 44th St New York, NY 10036","Coordinates":"{'latitude': 40.75821, 'longitude': -73.98833}","ReviewCount":"281","Rating":"4.0","ZipCode":""},{"Id":"XaEFFUabnbH8ZF7ccmSAlQ","Name":"South Of The Clouds","Cuisine":"Chinese","Address":"16 W 8th St New York, NY 10011","Coordinates":"{'latitude': 40.73264, 'longitude': -73.99752}","ReviewCount":"251","Rating":"4.0","ZipCode":""},{"Id":"6YehBdKHcLDsvaewhcEjFQ","Name":"Hey Yuet","Cuisine":"Chinese","Address":"251 W 26th St New York, NY 10001","Coordinates":"{'latitude': 40.747241, 'longitude': -73.996441}","ReviewCount":"209","Rating":"4.5","ZipCode":""},{"Id":"gJXNSJ9VXTuCFmp_Kl9TVQ","Name":"Shanghai","Cuisine":"Chinese","Address":"1388 2nd Ave New York, NY 10021","Coordinates":"{'latitude': 40.768291, 'longitude': -73.958381}","ReviewCount":"136","Rating":"4.0","ZipCode":""},{"Id":"FcXsiSJbk2ZnHyFJMkMK3g","Name":"Mala Kitchen","Cuisine":"Chinese","Address":"7 E 47th St New York, NY 10017","Coordinates":"{'latitude': 40.756545, 'longitude': -73.977673}","ReviewCount":"33","Rating":"4.0","ZipCode":""},{"Id":"M-4J09S14mPsH1EJrnR1Og","Name":"Yemen chuanchuan \u723a\u4eec\u4e32\u4e32 \u7237\u4eec\u4e32\u4e32","Cuisine":"Chinese","Address":"105 W27 St New York, NY 10001","Coordinates":"{'latitude': 40.745733, 'longitude': -73.99132}","ReviewCount":"20","Rating":"4.0","ZipCode":""},{"Id":"BPErPpKSNluwcjbKRgze3w","Name":"Xi'an Famous Foods","Cuisine":"Chinese","Address":"328 E 78th St New York, NY 10075","Coordinates":"{'latitude': 40.77197, 'longitude': -73.95452}","ReviewCount":"678","Rating":"4.0","ZipCode":""},{"Id":"nI1UYDCYUTt23TpGxqnLKg","Name":"Buddakan","Cuisine":"Chinese","Address":"75 9th Ave New York, NY 10011","Coordinates":"{'latitude': 40.7422762672197, 'longitude': -74.0048000961542}","ReviewCount":"4567","Rating":"4.0","ZipCode":""},{"Id":"JJLFsLZbL21fbYRqcIGCLA","Name":"Awesum Dimsum","Cuisine":"Chinese","Address":"612 8th Ave New York, NY 10018","Coordinates":"{'latitude': 40.7557, 'longitude': -73.9907}","ReviewCount":"315","Rating":"4.5","ZipCode":""},{"Id":"-lgNzAEyFr8LCTuBTWnAMg","Name":"Dim Sum Palace","Cuisine":"Chinese","Address":"28 W 56th St New York, NY 10019","Coordinates":"{'latitude': 40.762765496672955, 'longitude': -73.97609185077448}","ReviewCount":"460","Rating":"4.0","ZipCode":""},{"Id":"FcQA5tV8wlz6jg_UK_s7Hw","Name":"Simply Noodles","Cuisine":"Chinese","Address":"267  Amsterdam Ave New York, NY 10023","Coordinates":"{'latitude': 40.7788403, 'longitude': -73.98118199999999}","ReviewCount":"120","Rating":"4.5","ZipCode":""},{"Id":"_fTRTishY3G5dLPLYGCVAw","Name":"Tipsy Shanghai","Cuisine":"Chinese","Address":"594 3rd Ave New York, NY 10016","Coordinates":"{'latitude': 40.74879, 'longitude': -73.9761}","ReviewCount":"46","Rating":"4.0","ZipCode":""},{"Id":"C3tP0fNNAoxOAC3O406CXQ","Name":"Le Sia","Cuisine":"Chinese","Address":"651 9th Ave New York, NY 10036","Coordinates":"{'latitude': 40.76072, 'longitude': -73.99119}","ReviewCount":"140","Rating":"4.5","ZipCode":""},{"Id":"8ZBbl3VN-cu6PFOL0D7-8A","Name":"Hunan Village","Cuisine":"Chinese","Address":"339 Lexington Ave New York Ny New York, NY 10016","Coordinates":"{'latitude': 40.749688, 'longitude': -73.977171}","ReviewCount":"38","Rating":"4.5","ZipCode":""},{"Id":"sfsjk1h50ooC2ioY7m48gw","Name":"Pig Heaven","Cuisine":"Chinese","Address":"1420 3rd Ave New York, NY 10028","Coordinates":"{'latitude': 40.77544, 'longitude': -73.95686}","ReviewCount":"501","Rating":"4.0","ZipCode":""},{"Id":"OvdCm3j_5HzItolfvwrEUA","Name":"Lilli & Loo","Cuisine":"Chinese","Address":"785 Lexington Ave New York, NY 10065","Coordinates":"{'latitude': 40.76357, 'longitude': -73.96703}","ReviewCount":"483","Rating":"3.5","ZipCode":""},{"Id":"lSuyHj3cCXbKjcZaakF9lQ","Name":"Dimsum Garden","Cuisine":"Chinese","Address":"1068 2nd Ave New York, NY 10022","Coordinates":"{'latitude': 40.758701, 'longitude': -73.965463}","ReviewCount":"20","Rating":"4.0","ZipCode":""},{"Id":"-VRnWGBVMovSS0Ijta_qyg","Name":"Da Long Yi Hot Pot","Cuisine":"Chinese","Address":"42-22 Crescent St Long Island City, NY 11101","Coordinates":"{'latitude': 40.750168, 'longitude': -73.941345}","ReviewCount":"161","Rating":"5.0","ZipCode":""},{"Id":"lQ8Fzgji9qmgRXkFcvAsVQ","Name":"Chong Qing Xiao Mian","Cuisine":"Chinese","Address":"796 9th Ave New York, NY 10019","Coordinates":"{'latitude': 40.76513, 'longitude': -73.98753}","ReviewCount":"343","Rating":"4.0","ZipCode":""},{"Id":"qGgQMVExGERqGhZNDM2ROg","Name":"Wu Liang Ye","Cuisine":"Chinese","Address":"36 W 48th St New York, NY 10036","Coordinates":"{'latitude': 40.75781, 'longitude': -73.97994}","ReviewCount":"565","Rating":"3.5","ZipCode":""},{"Id":"pBNMZp_tKCAfRNx7-ybcHQ","Name":"Calle Dao Chelsea","Cuisine":"Chinese","Address":"461 W 23rd St New York, NY 10011","Coordinates":"{'latitude': 40.74765439999999, 'longitude': -74.00352547055276}","ReviewCount":"1047","Rating":"4.5","ZipCode":""},{"Id":"LNx49p5HYVc01rKnkfKkFg","Name":"Super Taste","Cuisine":"Chinese","Address":"1502 1st Ave New York, NY 10075","Coordinates":"{'latitude': 40.771858, 'longitude': -73.952783}","ReviewCount":"17","Rating":"4.5","ZipCode":""},{"Id":"BtsXojrMtfLRhhFK7rm35A","Name":"Hupo","Cuisine":"Chinese","Address":"1007 50th Ave Long Island City, NY 11101","Coordinates":"{'latitude': 40.742827, 'longitude': -73.953575}","ReviewCount":"230","Rating":"4.5","ZipCode":""},{"Id":"sBCJYLPNJuagg-aJ3Y_ozQ","Name":"Cheli","Cuisine":"Chinese","Address":"19 St Marks Pl Ste 23 New York, NY 10003","Coordinates":"{'latitude': 40.72925, 'longitude': -73.9886}","ReviewCount":"327","Rating":"4.0","ZipCode":""},{"Id":"NN3mOWF5e_pnR1ArqM2bHQ","Name":"OBAO","Cuisine":"Chinese","Address":"647 9th Ave New York, NY 10036","Coordinates":"{'latitude': 40.7606544, 'longitude': -73.991332}","ReviewCount":"4036","Rating":"4.0","ZipCode":""},{"Id":"s5JNxy0eAFgxS2Poi73ODw","Name":"Mala Project","Cuisine":"Chinese","Address":"41 W 46th St New York, NY 10036","Coordinates":"{'latitude': 40.756899, 'longitude': -73.980586}","ReviewCount":"528","Rating":"4.0","ZipCode":""},{"Id":"pCfGgX0WxGASGM4-Yhr2Pw","Name":"Hao Noodle Chelsea","Cuisine":"Chinese","Address":"343 W 14th St New York, NY 10014","Coordinates":"{'latitude': 40.7406999, 'longitude': -74.00436}","ReviewCount":"624","Rating":"4.5","ZipCode":""},{"Id":"SNhDVaf_n7VDZcfry8mYdA","Name":"The Bao","Cuisine":"Chinese","Address":"13 St Marks Pl New York, NY 10003","Coordinates":"{'latitude': 40.72939, 'longitude': -73.9889199}","ReviewCount":"1424","Rating":"4.0","ZipCode":""},{"Id":"YDZX2bJ1IyV0lunBYqbb4w","Name":"New Chinatown  Asian Cuisine\/ Bar","Cuisine":"Chinese","Address":"1650 3rd Ave New York, NY 10128","Coordinates":"{'latitude': 40.782945, 'longitude': -73.95132}","ReviewCount":"39","Rating":"4.5","ZipCode":""},{"Id":"z5f--L8_vB_WvSaRca7LQQ","Name":"Mala House","Cuisine":"Chinese","Address":"22 E 21st St New York, NY 10017","Coordinates":"{'latitude': 40.73945005575927, 'longitude': -73.98913809999999}","ReviewCount":"93","Rating":"4.5","ZipCode":""},{"Id":"gNGxh97n0NZgYG1Q_no9Kg","Name":"Potluck Club","Cuisine":"Chinese","Address":"133 Chrystie St New York, NY 10002","Coordinates":"{'latitude': 40.71952, 'longitude': -73.99333}","ReviewCount":"239","Rating":"4.5","ZipCode":""},{"Id":"LVkBYW-FNaZ2h-0zB8-vzA","Name":"Jiang's Kitchen","Cuisine":"Chinese","Address":"65 St Marks Pl New York, NY 10003","Coordinates":"{'latitude': 40.72808, 'longitude': -73.98615}","ReviewCount":"70","Rating":"4.5","ZipCode":""},{"Id":"s25mujxKWphsyFm0Ji1xYA","Name":"Mr Chow","Cuisine":"Chinese","Address":"324 E 57th St New York, NY 10022","Coordinates":"{'latitude': 40.7588502019644, 'longitude': -73.9643376320601}","ReviewCount":"440","Rating":"3.0","ZipCode":""},{"Id":"6dVXDdgzDEVt4DvHzpWo9w","Name":"Tang Pavilion","Cuisine":"Chinese","Address":"65 W 55th St New York, NY 10019","Coordinates":"{'latitude': 40.76275, 'longitude': -73.97725}","ReviewCount":"345","Rating":"3.5","ZipCode":""},{"Id":"gvOe1TLb8hZgx0naC9LYpw","Name":"Sei Less","Cuisine":"Chinese","Address":"156 W 38th St New York, NY 10018","Coordinates":"{'latitude': 40.75314, 'longitude': -73.98814}","ReviewCount":"271","Rating":"4.0","ZipCode":""},{"Id":"M-odQWSEfsR2mVEw7nKG-g","Name":"Nyonya","Cuisine":"Chinese","Address":"199 Grand St New York, NY 10013","Coordinates":"{'latitude': 40.719116974367, 'longitude': -73.9968322948353}","ReviewCount":"2379","Rating":"4.0","ZipCode":""},{"Id":"X2CQCOS4AiwKzqAOrZxeYg","Name":"Bites Of Xi\u2019an","Cuisine":"Chinese","Address":"555 8th Ave New York, NY 10018","Coordinates":"{'latitude': 40.7546, 'longitude': -73.99194}","ReviewCount":"9","Rating":"4.0","ZipCode":""},{"Id":"Qgv2vyUV-DwK8YwrhU-jtw","Name":"Lan Sheng Restaurant","Cuisine":"Chinese","Address":"128 W 36th St New York, NY 10018","Coordinates":"{'latitude': 40.7517141867087, 'longitude': -73.9883603449123}","ReviewCount":"218","Rating":"4.0","ZipCode":""},{"Id":"jwKPVep2qZYBUA6SLLQPvg","Name":"Legend 72","Cuisine":"Chinese","Address":"127 W 72nd St New York, NY 10023","Coordinates":"{'latitude': 40.77796, 'longitude': -73.9796901}","ReviewCount":"288","Rating":"3.5","ZipCode":""},{"Id":"xm_-5QZFzJidiUO--PgOYg","Name":"Bites of Xi'an","Cuisine":"Chinese","Address":"60 W 56th St New York, NY 10019","Coordinates":"{'latitude': 40.76335868622376, 'longitude': -73.97709537292124}","ReviewCount":"86","Rating":"4.0","ZipCode":""},{"Id":"WRRs3smfm6rHP5k4Slzr3w","Name":"Hop Won Restaurant","Cuisine":"Chinese","Address":"139 E 45th St New York, NY 10017","Coordinates":"{'latitude': 40.75322, 'longitude': -73.97399}","ReviewCount":"159","Rating":"3.0","ZipCode":""},{"Id":"r6r-XK_wL02FQdAgaauTxg","Name":"Kame","Cuisine":"Chinese","Address":"330 8th Ave New York, NY 10001","Coordinates":"{'latitude': 40.7474881059799, 'longitude': -73.996648862958}","ReviewCount":"785","Rating":"4.5","ZipCode":""},{"Id":"VbFYau70iG_s6UNFwYtGVQ","Name":"Xu's Public House","Cuisine":"Chinese","Address":"15 Union Square W New York, NY 10003","Coordinates":"{'latitude': 40.73589, 'longitude': -73.9917}","ReviewCount":"150","Rating":"4.0","ZipCode":""},{"Id":"pPqEu60FMffpiWqk2MCrVA","Name":"Hutaoli Music Restaurant & Bar","Cuisine":"Chinese","Address":"42 W 33rd St New York, NY 10001","Coordinates":"{'latitude': 40.748413, 'longitude': -73.9871229}","ReviewCount":"191","Rating":"4.0","ZipCode":""},{"Id":"xCHApgtkLpEyh0lz-uhZvg","Name":"Szechuan Garden","Cuisine":"Chinese","Address":"239 W 105th St New York, NY 10025","Coordinates":"{'latitude': 40.80053, 'longitude': -73.967586}","ReviewCount":"382","Rating":"4.0","ZipCode":""},{"Id":"TU_BU9HLflYI2xlyqVQdRA","Name":"TAO Uptown","Cuisine":"Chinese","Address":"42 E 58th St New York, NY 10022","Coordinates":"{'latitude': 40.762639, 'longitude': -73.971447}","ReviewCount":"2920","Rating":"3.5","ZipCode":""},{"Id":"JaKLZrh1Y_2qB_0Gc3bk3A","Name":"Ollie's Sichuan","Cuisine":"Chinese","Address":"411 W 42nd St New York, NY 10036","Coordinates":"{'latitude': 40.75884, 'longitude': -73.99319}","ReviewCount":"609","Rating":"3.5","ZipCode":""},{"Id":"cG9yhk_wkMm7XwR2HcHmrQ","Name":"Hidden Leaf","Cuisine":"Chinese","Address":"75 Manhattan W Plz New York, NY 10001","Coordinates":"{'latitude': 40.75286450667627, 'longitude': -73.9982738730148}","ReviewCount":"78","Rating":"4.5","ZipCode":""},{"Id":"VW2Epq3C8jqysu6Edpu-RA","Name":"Atlas Kitchen","Cuisine":"Chinese","Address":"258 W 109th St New York, NY 10025","Coordinates":"{'latitude': 40.80332, 'longitude': -73.9668}","ReviewCount":"196","Rating":"4.0","ZipCode":""},{"Id":"fjj5hk9vmfjaxq855OBQXQ","Name":"Cozy Rice","Cuisine":"Chinese","Address":"42 W 38th St New York, NY 10018","Coordinates":"{'latitude': 40.751628, 'longitude': -73.984771}","ReviewCount":"12","Rating":"5.0","ZipCode":""},{"Id":"nzqNfNXjtB6bxp-UN7xXkA","Name":"Bao Bao Cafe","Cuisine":"Chinese","Address":"214 W 39th Street Retail 101 New York, NY 10018","Coordinates":"{'latitude': 40.75432, 'longitude': -73.989333}","ReviewCount":"100","Rating":"4.5","ZipCode":""},{"Id":"iM2DKMjyU_R1r8x-3AZGQg","Name":"New Cottage","Cuisine":"Chinese","Address":"2199 Broadway New York, NY 10024","Coordinates":"{'latitude': 40.78326357630784, 'longitude': -73.98078454782609}","ReviewCount":"84","Rating":"4.0","ZipCode":""},{"Id":"2UmeXoBQ6zRNn0Zv_VcAjw","Name":"JiangNan","Cuisine":"Chinese","Address":"133-42 39th Ave Ste 101 Flushing, NY 11354","Coordinates":"{'latitude': 40.759239, 'longitude': -73.83256}","ReviewCount":"382","Rating":"4.5","ZipCode":""},{"Id":"7ZQSMqWzvXMSetXnii2fBg","Name":"Excellent Dumpling House","Cuisine":"Chinese","Address":"165 W 23rd St New York, NY 10011","Coordinates":"{'latitude': 40.7440494396358, 'longitude': -73.995028194335}","ReviewCount":"776","Rating":"4.0","ZipCode":""},{"Id":"NFDN32ekG2gfCIikVCm0Gw","Name":"The Corner Chinese","Cuisine":"Chinese","Address":"698 9th Ave New York, NY 10036","Coordinates":"{'latitude': 40.762019, 'longitude': -73.989676}","ReviewCount":"36","Rating":"4.0","ZipCode":""},{"Id":"slMRh4GEu5Mg53kicgmf4g","Name":"Four Four South Village","Cuisine":"Chinese","Address":"368 W 46th St New York, NY 10036","Coordinates":"{'latitude': 40.76068, 'longitude': -73.99034}","ReviewCount":"100","Rating":"4.5","ZipCode":""},{"Id":"UNyGz06_7RendbswIyNYtA","Name":"Shu Han Ju","Cuisine":"Chinese","Address":"465 6th Ave New York, NY 10011","Coordinates":"{'latitude': 40.73558, 'longitude': -73.99843}","ReviewCount":"201","Rating":"3.5","ZipCode":""},{"Id":"8Oo2AtQEPDfxIOnA8wfXoQ","Name":"886","Cuisine":"Chinese","Address":"26 Saint Marks Pl New York, NY 10003","Coordinates":"{'latitude': 40.72877, 'longitude': -73.98873}","ReviewCount":"685","Rating":"4.0","ZipCode":""},{"Id":"rGUv1nNmsvy2jOlZtbaOpw","Name":"Dimsum Garden","Cuisine":"Chinese","Address":"338 Lexington Ave New York, NY 10016","Coordinates":"{'latitude': 40.74979, 'longitude': -73.97743}","ReviewCount":"94","Rating":"4.0","ZipCode":""},{"Id":"mIbmzqQ473BUF8cngXXs_Q","Name":"Joy Love Club","Cuisine":"Chinese","Address":"232 8th Ave New York, NY 10011","Coordinates":"{'latitude': 40.7444, 'longitude': -73.99891}","ReviewCount":"143","Rating":"4.5","ZipCode":""},{"Id":"53lgp8fFEuK3Yo7yeXc89A","Name":"Tim Ho Wan - Hell's Kitchen","Cuisine":"Chinese","Address":"610 9th Ave New York, NY 10036","Coordinates":"{'latitude': 40.75935, 'longitude': -73.99175}","ReviewCount":"578","Rating":"4.0","ZipCode":""},{"Id":"Vzx-7-jSEBz2g8NuGVhHvQ","Name":"Philippe Chow","Cuisine":"Chinese","Address":"33 E 60th St New York, NY 10065","Coordinates":"{'latitude': 40.76409, 'longitude': -73.97039}","ReviewCount":"927","Rating":"3.5","ZipCode":""},{"Id":"iSjPBJRiWqrgxW7ZM3CGig","Name":"Birds of a Feather","Cuisine":"Chinese","Address":"191 Grand St Brooklyn, NY 11211","Coordinates":"{'latitude': 40.71442, 'longitude': -73.960441}","ReviewCount":"612","Rating":"4.0","ZipCode":""},{"Id":"ebug8VzizRlgdK2fYRi-6A","Name":"Chai","Cuisine":"Chinese","Address":"353 W 46th St New York, NY 10036","Coordinates":"{'latitude': 40.7607, 'longitude': -73.98982}","ReviewCount":"121","Rating":"4.0","ZipCode":""},{"Id":"iiP46Z-A_ClynkS_qFQKEQ","Name":"Munchiez by Mei Lai Wah","Cuisine":"Chinese","Address":"126 MacDougal St New York, NY 10012","Coordinates":"{'latitude': 40.730027, 'longitude': -74.000204}","ReviewCount":"123","Rating":"4.5","ZipCode":""},{"Id":"wobICp6lQP7Y6dfnJ_4Ujw","Name":"Shun Lee West & Cafe","Cuisine":"Chinese","Address":"43 W 65th St New York, NY 10023","Coordinates":"{'latitude': 40.77269583, 'longitude': -73.98150783}","ReviewCount":"567","Rating":"2.5","ZipCode":""},{"Id":"R7EGjHWw0tNheY6-ahH8fQ","Name":"Tuome","Cuisine":"Chinese","Address":"536 E 5th St New York, NY 10009","Coordinates":"{'latitude': 40.72412482724, 'longitude': -73.9828906263924}","ReviewCount":"674","Rating":"4.5","ZipCode":""},{"Id":"c_YQu6gmnG_v7nXoTQHzHA","Name":"Xiao Chuan Dian","Cuisine":"Chinese","Address":"8 Henry Ave Palisades Park, NJ 07650","Coordinates":"{'latitude': 40.8462581, 'longitude': -73.9995048}","ReviewCount":"64","Rating":"4.0","ZipCode":""},{"Id":"8YWLuLUKj0t_0_Xv06UUtw","Name":"Ye's Apothecary","Cuisine":"Chinese","Address":"119 Orchard St New York, NY 10002","Coordinates":"{'latitude': 40.71945, 'longitude': -73.9898}","ReviewCount":"391","Rating":"4.5","ZipCode":""},{"Id":"E_Rxnmim6J2ECFtU0QGlsQ","Name":"Uncle Lou","Cuisine":"Chinese","Address":"73 Mulberry St New York, NY 10013","Coordinates":"{'latitude': 40.71623, 'longitude': -73.99925}","ReviewCount":"368","Rating":"4.0","ZipCode":""},{"Id":"i6CpYdmMYoz712bRWTWVgQ","Name":"Piggyback by Pig and Khao","Cuisine":"Chinese","Address":"140 W 30th St New York, NY 10001","Coordinates":"{'latitude': 40.747961, 'longitude': -73.99163}","ReviewCount":"127","Rating":"4.0","ZipCode":""},{"Id":"LTVNsNBh_0FI8MYrPfjRDQ","Name":"Jiang Nan","Cuisine":"Chinese","Address":"103 Bowery New York, NY 10002","Coordinates":"{'latitude': 40.7175581, 'longitude': -73.99498}","ReviewCount":"101","Rating":"4.0","ZipCode":""},{"Id":"B7bxdtvLYR7Nmex4AIFd4w","Name":"RedFarm","Cuisine":"Chinese","Address":"2170 Broadway New York, NY 10024","Coordinates":"{'latitude': 40.782051, 'longitude': -73.980415}","ReviewCount":"747","Rating":"3.5","ZipCode":""},{"Id":"Lp8vAE5nHSt5zbu-lSGK8A","Name":"Hop Lee Restaurant","Cuisine":"Chinese","Address":"16 Mott St New York, NY 10013","Coordinates":"{'latitude': 40.71422, 'longitude': -73.99864}","ReviewCount":"378","Rating":"4.0","ZipCode":""},{"Id":"3oB2_2vpeIyxJt1GvlcZBA","Name":"Baodega","Cuisine":"Chinese","Address":"7 W 20th St New York, NY 10011","Coordinates":"{'latitude': 40.740201, 'longitude': -73.991727}","ReviewCount":"292","Rating":"4.0","ZipCode":""},{"Id":"UaQF4mv6hVjiegkwUvQeMQ","Name":"Dim Sum Chelsea","Cuisine":"Chinese","Address":"236 8th Ave New York, NY 10011","Coordinates":"{'latitude': 40.744624, 'longitude': -73.998649}","ReviewCount":"173","Rating":"4.5","ZipCode":""},{"Id":"HduEOz0RSK91GDr8EoxELw","Name":"Dim Sum Bloom ","Cuisine":"Chinese","Address":"2596 Broadway New York, NY 10025","Coordinates":"{'latitude': 40.7957, 'longitude': -73.9707}","ReviewCount":"32","Rating":"4.0","ZipCode":""},{"Id":"_lx7nuvXU7LhDRL3a9TMAw","Name":"DD Soup Dumpling","Cuisine":"Chinese","Address":"321 W 42nd St 1A New York, NY 10036","Coordinates":"{'latitude': 40.757906, 'longitude': -73.990692}","ReviewCount":"165","Rating":"4.5","ZipCode":""},{"Id":"f_vDVYSk-VUnlGTvgtBwkQ","Name":"Noodlecraft","Cuisine":"Chinese","Address":"10 39 47th Rd Queens, NY 11101","Coordinates":"{'latitude': 40.74471, 'longitude': -73.95182}","ReviewCount":"163","Rating":"4.5","ZipCode":""},{"Id":"GAFqRBlqZpLK2vYbiqzYhA","Name":"Peppercorn Station","Cuisine":"Chinese","Address":"66 W 39th St New York, NY 10018","Coordinates":"{'latitude': 40.75266, 'longitude': -73.985145}","ReviewCount":"90","Rating":"4.5","ZipCode":""},{"Id":"_7GunmWHykEJ5_u2zkX1gg","Name":"Dim Sum Sam","Cuisine":"Chinese","Address":"28 E 23rd St New York, NY 10010","Coordinates":"{'latitude': 40.740541, 'longitude': -73.987818}","ReviewCount":"108","Rating":"4.0","ZipCode":""},{"Id":"MYPes7EWP5aLiVG1Z_9eFQ","Name":"Jing Fong","Cuisine":"Chinese","Address":"380 Amsterdam Ave New York, NY 10024","Coordinates":"{'latitude': 40.7827096147799, 'longitude': -73.9789128775797}","ReviewCount":"302","Rating":"3.0","ZipCode":""},{"Id":"MxdsqhU-Qq34WAl5qL4wsQ","Name":"DD Soup Dumpling","Cuisine":"Chinese","Address":"690 9th Ave New York, NY 10036","Coordinates":"{'latitude': 40.761772, 'longitude': -73.989812}","ReviewCount":"34","Rating":"4.5","ZipCode":""},{"Id":"scTDvJ2M2jDbb1ntVeIyxA","Name":"Hao Noodle - West Village","Cuisine":"Chinese","Address":"401 6th Ave New York, NY 10014","Coordinates":"{'latitude': 40.7334863190479, 'longitude': -73.9998929006093}","ReviewCount":"871","Rating":"4.0","ZipCode":""},{"Id":"U_JIkNwSc-J-tu_E8iztyg","Name":"Three Hotpot Bbq","Cuisine":"Chinese","Address":"18 W 38th St New York, NY 10018","Coordinates":"{'latitude': 40.751224, 'longitude': -73.983822}","ReviewCount":"49","Rating":"4.5","ZipCode":""},{"Id":"wB62GwboLqg1UpGm-Qpz5Q","Name":"La Salle Dumpling Room West End","Cuisine":"Chinese","Address":"37 West End Ave New York, NY 10023","Coordinates":"{'latitude': 40.773196, 'longitude': -73.989616}","ReviewCount":"10","Rating":"4.0","ZipCode":""},{"Id":"H1jops1lmuhrq9lP7lEGJQ","Name":"Flor De Mayo","Cuisine":"Chinese","Address":"484 Amsterdam Ave New York, NY 10024","Coordinates":"{'latitude': 40.78609, 'longitude': -73.97658}","ReviewCount":"1328","Rating":"4.0","ZipCode":""},{"Id":"HDoJIH-qW9FqJ5WB-bKTqA","Name":"MIGHTY Bowl","Cuisine":"Chinese","Address":"1109 Lexington Ave New York, NY 10075","Coordinates":"{'latitude': 40.7738, 'longitude': -73.95945}","ReviewCount":"149","Rating":"4.5","ZipCode":""},{"Id":"7DnZWIn1Dcsvq-_pIXXFZQ","Name":"Hortus NYC","Cuisine":"Chinese","Address":"271 5th Ave New York, NY 10016","Coordinates":"{'latitude': 40.745481, 'longitude': -73.986518}","ReviewCount":"476","Rating":"4.5","ZipCode":""},{"Id":"RYoc4EBUNOtgbg7c32OG9A","Name":"Atoboy","Cuisine":"Chinese","Address":"43 E 28th St New York, NY 10016","Coordinates":"{'latitude': 40.74364, 'longitude': -73.98456}","ReviewCount":"628","Rating":"4.5","ZipCode":""},{"Id":"UBY796Pa8HAuqC2uRR0WNg","Name":"Dim Sum Sam","Cuisine":"Chinese","Address":"240 W 40th St New York, NY 10018","Coordinates":"{'latitude': 40.755247, 'longitude': -73.989578}","ReviewCount":"92","Rating":"4.0","ZipCode":""},{"Id":"rYw5rQbWRX9buZHZbxqWdA","Name":"Congee Village","Cuisine":"Chinese","Address":"100 Allen St New York, NY 10002","Coordinates":"{'latitude': 40.7187, 'longitude': -73.99031}","ReviewCount":"1778","Rating":"3.5","ZipCode":""},{"Id":"jjJc_CrkB2HodEinB6cWww","Name":"LoveMama","Cuisine":"Chinese","Address":"174 2nd Ave New York, NY 10003","Coordinates":"{'latitude': 40.730408722512074, 'longitude': -73.98612673033213}","ReviewCount":"6546","Rating":"4.5","ZipCode":""},{"Id":"KSleHGTG1yL1E7OEFFPoNQ","Name":"LaoMa Spicy","Cuisine":"Chinese","Address":"58 E 8th St New York, NY 10003","Coordinates":"{'latitude': 40.73089, 'longitude': -73.99343}","ReviewCount":"270","Rating":"4.0","ZipCode":""},{"Id":"olRNNJCJ2TJvPRmjBiOcGA","Name":"Silky Kitchen","Cuisine":"Chinese","Address":"137 E 13th St New York, NY 10003","Coordinates":"{'latitude': 40.733077, 'longitude': -73.988303}","ReviewCount":"287","Rating":"4.5","ZipCode":""},{"Id":"HPwH6d3yshPeF0pywgDfSw","Name":"Jiang Nan","Cuisine":"Chinese","Address":"97 Montgomery St Jersey City, NJ 07302","Coordinates":"{'latitude': 40.71681948978749, 'longitude': -74.03873209999999}","ReviewCount":"87","Rating":"4.0","ZipCode":""},{"Id":"dDXtga5Kgo5B1twdezcZJA","Name":"Auntie Guan's Kitchen ","Cuisine":"Chinese","Address":"108 W 14th St New York, NY 10011","Coordinates":"{'latitude': 40.73748, 'longitude': -73.99752}","ReviewCount":"386","Rating":"3.5","ZipCode":""},{"Id":"R26zweQ8-xoZS7iHkXQOvw","Name":"Shanghai 21","Cuisine":"Chinese","Address":"21 Mott St New York, NY 10013","Coordinates":"{'latitude': 40.71441, 'longitude': -73.99902}","ReviewCount":"1983","Rating":"4.0","ZipCode":""},{"Id":"lgHmMRBaU-48kGaNz3jYxg","Name":"Chairman Sun","Cuisine":"Chinese","Address":"47-30 Vernon Blvd Long Island City, NY 11101","Coordinates":"{'latitude': 40.74465, 'longitude': -73.95375}","ReviewCount":"238","Rating":"3.5","ZipCode":""},{"Id":"i7cKPMXreR4XfTjdpqZ_5A","Name":"Emperor Dumpling","Cuisine":"Chinese","Address":"818 6th Ave New York, NY 10001","Coordinates":"{'latitude': 40.746144, 'longitude': -73.990189}","ReviewCount":"60","Rating":"4.5","ZipCode":""},{"Id":"ilpPyvli6JGOdCJe8EMbvw","Name":"Rice Bird","Cuisine":"Chinese","Address":"334 E 9th St New York, NY 10003","Coordinates":"{'latitude': 40.728519, 'longitude': -73.986016}","ReviewCount":"7","Rating":"5.0","ZipCode":""},{"Id":"MdDj13LgIs0WdbIdiyqB7Q","Name":"Pinch Chinese","Cuisine":"Chinese","Address":"177 Prince St New York, NY 10012","Coordinates":"{'latitude': 40.72645222833495, 'longitude': -74.0017973317552}","ReviewCount":"471","Rating":"4.0","ZipCode":""},{"Id":"EN9_LsFpY44Hkzcnu0jfIg","Name":"Dynasty Dim Sum","Cuisine":"Chinese","Address":"381 3rd Ave New York, NY 10016","Coordinates":"{'latitude': 40.74148, 'longitude': -73.98087}","ReviewCount":"199","Rating":"4.0","ZipCode":""},{"Id":"KjN7kiCP4kZbt1dj8w3A3g","Name":"Steam - Shanghai Asian Fusion","Cuisine":"Chinese","Address":"470 6th Ave New York, NY 10011","Coordinates":"{'latitude': 40.73561, 'longitude': -73.99789}","ReviewCount":"113","Rating":"4.5","ZipCode":""},{"Id":"Bb0h5Rs8ugSM2CjulRhfBw","Name":"Spicy Moon East Village","Cuisine":"Chinese","Address":"328 E 6th St New York, NY 10003","Coordinates":"{'latitude': 40.72674, 'longitude': -73.98722}","ReviewCount":"672","Rating":"4.5","ZipCode":""},{"Id":"LXmlfAmrGA3NfvYSfxIVvQ","Name":"Ma LaLa","Cuisine":"Chinese","Address":"42-02 30th Ave Astoria, NY 11103","Coordinates":"{'latitude': 40.7629662660109, 'longitude': -73.913354203105}","ReviewCount":"127","Rating":"4.0","ZipCode":""},{"Id":"NXg-oNpx0GYNiErdHb8L5A","Name":"Awesum Dimsum","Cuisine":"Chinese","Address":"160 E 23rd St New York, NY 10010","Coordinates":"{'latitude': 40.7388534, 'longitude': -73.98367370212858}","ReviewCount":"716","Rating":"4.5","ZipCode":""},{"Id":"SG13JvbIW-IpO3hgrTv5_Q","Name":"P\u00fas\u00f9","Cuisine":"Chinese","Address":"318 Bedford Ave Brooklyn, NY 11249","Coordinates":"{'latitude': 40.713636, 'longitude': -73.962177}","ReviewCount":"14","Rating":"5.0","ZipCode":""},{"Id":"g512kssHLLTdDbUJHTmJFw","Name":"Stick To My Pot Potsticker","Cuisine":"Chinese","Address":"224 W 35th St New York, NY 10001","Coordinates":"{'latitude': 40.75202, 'longitude': -73.99121}","ReviewCount":"261","Rating":"4.5","ZipCode":""},{"Id":"Sj2StOWkhHIPE6_sS5RMCQ","Name":"Evergreen On 38","Cuisine":"Chinese","Address":"10 E 38th St New York, NY 10016","Coordinates":"{'latitude': 40.75041, 'longitude': -73.98199}","ReviewCount":"312","Rating":"3.5","ZipCode":""},{"Id":"MhceeLrM2_3mcKw5EGLY6A","Name":"Pure Thai Cookhouse","Cuisine":"Chinese","Address":"766 9th Ave New York, NY 10019","Coordinates":"{'latitude': 40.764291, 'longitude': -73.988159}","ReviewCount":"2833","Rating":"4.0","ZipCode":""},{"Id":"SojK8JSHn48UQXZtI6Be8Q","Name":"Purple Rice","Cuisine":"Chinese","Address":"832 Washington St Hoboken, NJ 07030","Coordinates":"{'latitude': 40.74719, 'longitude': -74.028262}","ReviewCount":"9","Rating":"5.0","ZipCode":""},{"Id":"4DInnPhOyvXFbYpUdO0SMQ","Name":"Antidote","Cuisine":"Chinese","Address":"66 S 2nd St Brooklyn, NY 11249","Coordinates":"{'latitude': 40.714186, 'longitude': -73.965493}","ReviewCount":"403","Rating":"4.5","ZipCode":""},{"Id":"g_5V15Xp1OvB1QXuGMstYA","Name":"Chef Yu","Cuisine":"Chinese","Address":"520 8th Ave GFL New York, NY 10018","Coordinates":"{'latitude': 40.75352133489135, 'longitude': -73.99226032843487}","ReviewCount":"654","Rating":"3.0","ZipCode":""},{"Id":"l7G5tDA96xbA_bx1ZgkOeg","Name":"ICHIRAN Midtown","Cuisine":"Chinese","Address":"132 W 31st St New York, NY 10001","Coordinates":"{'latitude': 40.74839, 'longitude': -73.99062}","ReviewCount":"1353","Rating":"4.0","ZipCode":""},{"Id":"cGSLzPA_SCWrN3cyT86Nhw","Name":"Dun Huang - Upper West","Cuisine":"Chinese","Address":"1268 Amsterdam Ave New York, NY 10027","Coordinates":"{'latitude': 40.81106, 'longitude': -73.95818}","ReviewCount":"99","Rating":"3.5","ZipCode":""},{"Id":"wjIyCBEpCG_HRp8veiI0YQ","Name":"Ootoya Times Square","Cuisine":"Chinese","Address":"141 W 41st St New York, NY 10036","Coordinates":"{'latitude': 40.754924, 'longitude': -73.985945}","ReviewCount":"1107","Rating":"4.0","ZipCode":""},{"Id":"Va_mnsEvBghHXvc7uZIWJQ","Name":"Spice Symphony","Cuisine":"Chinese","Address":"182 Lexington Ave New York, NY 10016","Coordinates":"{'latitude': 40.744722, 'longitude': -73.981202}","ReviewCount":"675","Rating":"4.0","ZipCode":""},{"Id":"FQi7AP2j9UYc1c-VTF00rA","Name":"Wok In The Clouds","Cuisine":"Chinese","Address":"127 E 28th St New York, NY 10016","Coordinates":"{'latitude': 40.7429, 'longitude': -73.9828}","ReviewCount":"31","Rating":"4.5","ZipCode":""},{"Id":"GAQmkl1rx8IMb1xOK388pA","Name":"Wok & Staple","Cuisine":"Chinese","Address":"135 W 50th St New York, NY 10020","Coordinates":"{'latitude': 40.761038295811474, 'longitude': -73.98189336061478}","ReviewCount":"11","Rating":"4.0","ZipCode":""},{"Id":"v2dtG37r1ThqtfEfiFsAUg","Name":"Shanghai Mong","Cuisine":"Chinese","Address":"30 W 32nd St New York, NY 10001","Coordinates":"{'latitude': 40.7476119995117, 'longitude': -73.9871597290039}","ReviewCount":"632","Rating":"3.0","ZipCode":""},{"Id":"7Fv8r-NFhIqlzrFwoAuWqg","Name":"China Guan Bing","Cuisine":"Chinese","Address":"2748 Jackson Ave New York, NY 11101","Coordinates":"{'latitude': 40.74801947981109, 'longitude': -73.93922123101494}","ReviewCount":"18","Rating":"4.0","ZipCode":""},{"Id":"6kCo3xb87Sc3Aa5ZSWzNnw","Name":"Kung Fu Kitchen","Cuisine":"Chinese","Address":"610 8th Ave New York, NY 10018","Coordinates":"{'latitude': 40.755631112182144, 'longitude': -73.99066}","ReviewCount":"519","Rating":"3.5","ZipCode":""},{"Id":"X4hEgOBOLTYFhlWO-gAFxQ","Name":"Tipsy Shanghai","Cuisine":"Chinese","Address":"228 Thompson St New York, NY 10012","Coordinates":"{'latitude': 40.72929, 'longitude': -73.99882}","ReviewCount":"363","Rating":"4.0","ZipCode":""},{"Id":"DmTz35KvxO20mH-pJxLNpg","Name":"Xi'an Famous Foods","Cuisine":"Chinese","Address":"96 8th Ave New York, NY 10011","Coordinates":"{'latitude': 40.740203, 'longitude': -74.001963}","ReviewCount":"155","Rating":"4.0","ZipCode":""},{"Id":"NIGYFezOj_F_M5GskaN-2Q","Name":"Tipsy Shanghai","Cuisine":"Chinese","Address":"342 7th Ave New York, NY 10001","Coordinates":"{'latitude': 40.74811, 'longitude': -73.99306}","ReviewCount":"29","Rating":"3.5","ZipCode":""},{"Id":"Ej-hrhc8HFWfijN4X5akOg","Name":"Dim Sum Palace","Cuisine":"Chinese","Address":"33 W 33rd St New York, NY 10001","Coordinates":"{'latitude': 40.7486498128575, 'longitude': -73.98684828079797}","ReviewCount":"239","Rating":"4.0","ZipCode":""},{"Id":"3ESDUFulPVoMJdsqPQGm0A","Name":"Golden City Chinese Restaurant","Cuisine":"Chinese","Address":"423 9th Ave New York, NY 10001","Coordinates":"{'latitude': 40.753277148143, 'longitude': -73.996643608314}","ReviewCount":"98","Rating":"3.5","ZipCode":""},{"Id":"Kqb7MjTPNkjPMoFRd-rWpw","Name":"M\u00e1L\u00e0 Project","Cuisine":"Chinese","Address":"122 1st Ave New York, NY 10009","Coordinates":"{'latitude': 40.72713, 'longitude': -73.98542}","ReviewCount":"890","Rating":"4.0","ZipCode":""},{"Id":"nTHJVJDkzNDTF4lsKyoUAg","Name":"Xi'an Famous Foods","Cuisine":"Chinese","Address":"12-15 Jackson Ave Long Island City, NY 11101","Coordinates":"{'latitude': 40.74393, 'longitude': -73.95051}","ReviewCount":"6","Rating":"5.0","ZipCode":""},{"Id":"ipPhk_Tmp2JYInPWJR-ZgQ","Name":"Dun Huang","Cuisine":"Chinese","Address":"27-23 Jackson Ave Queens, NY 11101","Coordinates":"{'latitude': 40.748034191355224, 'longitude': -73.94037311324054}","ReviewCount":"63","Rating":"4.0","ZipCode":""},{"Id":"pb_cHcy8D8UC-jQ-Q524ug","Name":"Som Bo","Cuisine":"Chinese","Address":"143 8th Ave New York, NY 10011","Coordinates":"{'latitude': 40.74192, 'longitude': -74.00136}","ReviewCount":"278","Rating":"4.0","ZipCode":""},{"Id":"WRPJeH3goSpj5ke3Pkrnfw","Name":"Burp Bowl Cafe","Cuisine":"Chinese","Address":"134 E 27th St New York, NY 10010","Coordinates":"{'latitude': 40.74183, 'longitude': -73.98271}","ReviewCount":"295","Rating":"4.5","ZipCode":""},{"Id":"shwaY4v3fx9tjalvHVIBxQ","Name":"Tengri Tagh Uyghur Cuisine","Cuisine":"Chinese","Address":"144 W 37th St New York, NY 10018","Coordinates":"{'latitude': 40.75246221952214, 'longitude': -73.98871967056284}","ReviewCount":"99","Rating":"4.5","ZipCode":""},{"Id":"sgv9hH9sBmyfxSKuoZU86g","Name":"Baohub","Cuisine":"Chinese","Address":"261 1st Ave New York, NY 10003","Coordinates":"{'latitude': 40.732288, 'longitude': -73.982227}","ReviewCount":"2","Rating":"4.5","ZipCode":""},{"Id":"GJZnf3B-ADjlCV1NXsHvGQ","Name":"Tang's Garden","Cuisine":"Chinese","Address":"1328 3rd Ave New York, NY 10021","Coordinates":"{'latitude': 40.7722574, 'longitude': -73.9589547}","ReviewCount":"115","Rating":"3.0","ZipCode":""},{"Id":"smxIke5NSkMIExa6jLVw-g","Name":"Joe's Steam Rice Roll","Cuisine":"Chinese","Address":"422 Amsterdam Ave New York, NY 10024","Coordinates":"{'latitude': 40.784079, 'longitude': -73.977885}","ReviewCount":"219","Rating":"4.5","ZipCode":""},{"Id":"LpVbI-E9C-CSp7WhU5h2Iw","Name":"Fishmarket Restaurant","Cuisine":"Chinese","Address":"111 South St New York, NY 10038","Coordinates":"{'latitude': 40.70717, 'longitude': -74.00192}","ReviewCount":"636","Rating":"4.5","ZipCode":""},{"Id":"lgS9lE0Y9FhzT68zCj5QCw","Name":"Hunan Bistro","Cuisine":"Chinese","Address":"96 3rd Ave New York, NY 10003","Coordinates":"{'latitude': 40.73234, 'longitude': -73.9881}","ReviewCount":"255","Rating":"3.5","ZipCode":""},{"Id":"rBUTVjRs5CcEMe3dfVRZJQ","Name":"Ho Foods","Cuisine":"Chinese","Address":"110 E 7th St New York, NY 10009","Coordinates":"{'latitude': 40.72634, 'longitude': -73.98478}","ReviewCount":"425","Rating":"4.0","ZipCode":""},{"Id":"gNmF50bsYnpVQCNXoW02mg","Name":"Jing Fong Restaurant","Cuisine":"Chinese","Address":"202 Centre St New York, NY 10013","Coordinates":"{'latitude': 40.71882649220873, 'longitude': -73.99901858958395}","ReviewCount":"177","Rating":"4.0","ZipCode":""},{"Id":"vQe7_ZW_jBSWKtgSiXGIOA","Name":"Soup Dumpling Plus","Cuisine":"Chinese","Address":"1550 Lemoine Ave Ste 109 Fort Lee, NJ 07024","Coordinates":"{'latitude': 40.84757, 'longitude': -73.9706099}","ReviewCount":"1310","Rating":"4.5","ZipCode":""},{"Id":"OXNPuN7KcjP9T5DdilgzdQ","Name":"Hakka Cuisine","Cuisine":"Chinese","Address":"11 Division St New York, NY 10002","Coordinates":"{'latitude': 40.71398, 'longitude': -73.9969}","ReviewCount":"52","Rating":"4.0","ZipCode":""},{"Id":"Puyzn1gagH9TsJz7EBJs3g","Name":"Baji Baji","Cuisine":"Chinese","Address":"145 1st Ave New York, NY 10003","Coordinates":"{'latitude': 40.72821421354205, 'longitude': -73.98516918819301}","ReviewCount":"68","Rating":"4.5","ZipCode":""},{"Id":"IkOW8jcaFYOll4albHitLw","Name":"Lotus + Cleaver","Cuisine":"Chinese","Address":"28-17 Jackson Ave Long Island City, NY 11101","Coordinates":"{'latitude': 40.74902961482093, 'longitude': -73.9387376}","ReviewCount":"76","Rating":"4.0","ZipCode":""},{"Id":"nZQ1samsm5S7w0F4i3A_ig","Name":"Lubian Chinese Grilled Fish","Cuisine":"Chinese","Address":"650 9th Ave New York, NY 10036","Coordinates":"{'latitude': 40.76068552301005, 'longitude': -73.99078957736492}","ReviewCount":"13","Rating":"4.0","ZipCode":""},{"Id":"w3wKbjuNCZnYoPOr-FCk5w","Name":"New Moon","Cuisine":"Chinese","Address":"547 2nd Ave New York, NY 10016","Coordinates":"{'latitude': 40.742569, 'longitude': -73.977856}","ReviewCount":"205","Rating":"3.5","ZipCode":""},{"Id":"bnDfFdiCcPzhuNWUJORvLQ","Name":"Noodle Village","Cuisine":"Chinese","Address":"13 Mott St New York, NY 10013","Coordinates":"{'latitude': 40.714167, 'longitude': -73.998803}","ReviewCount":"1392","Rating":"4.0","ZipCode":""},{"Id":"axzLme4JxACF79oxurAgUw","Name":"Canteen Newyork","Cuisine":"Chinese","Address":"52 W 28th St New York, NY 10001","Coordinates":"{'latitude': 40.745749, 'longitude': -73.990149}","ReviewCount":"1","Rating":"5.0","ZipCode":""},{"Id":"gcEMZjjqy5Ucnv_5Pv-q1g","Name":"Tasty Hand Pulled Noodles II","Cuisine":"Chinese","Address":"648 9th Ave New York, NY 10036","Coordinates":"{'latitude': 40.760537, 'longitude': -73.990782}","ReviewCount":"399","Rating":"4.0","ZipCode":""},{"Id":"kwq1W0opBnOYKoUXWYyQ5g","Name":"Momokawa","Cuisine":"Chinese","Address":"1466 1st Ave New York, NY 10075","Coordinates":"{'latitude': 40.77047, 'longitude': -73.9537}","ReviewCount":"238","Rating":"4.0","ZipCode":""},{"Id":"ItZ8CzZAGXGjB8_9HxDIXg","Name":"Grand Sichuan Eastern","Cuisine":"Chinese","Address":"172 8th Ave New York, NY 10011","Coordinates":"{'latitude': 40.74256, 'longitude': -74.00026}","ReviewCount":"142","Rating":"3.0","ZipCode":""},{"Id":"a93NwZxjkPQydJxR42oPyg","Name":"Grain House","Cuisine":"Chinese","Address":"929 Amsterdam Ave New York, NY 10025","Coordinates":"{'latitude': 40.800127673827, 'longitude': -73.9657538384199}","ReviewCount":"136","Rating":"3.5","ZipCode":""},{"Id":"Dqu-5RxNbbpBsL1Ssht9Ng","Name":"Hunan Slurp","Cuisine":"Chinese","Address":"112 1st Ave New York, NY 10009","Coordinates":"{'latitude': 40.72669, 'longitude': -73.98563}","ReviewCount":"264","Rating":"4.0","ZipCode":""},{"Id":"RkcQl4uEJWblWf4xX8ssqQ","Name":"Wa Jeal Sichuan Chili House","Cuisine":"Chinese","Address":"1588 2nd Ave New York, NY 10028","Coordinates":"{'latitude': 40.77536, 'longitude': -73.95317}","ReviewCount":"453","Rating":"3.5","ZipCode":""},{"Id":"mDajKjZjRN4tVGEJFOgF9w","Name":"Wok 88","Cuisine":"Chinese","Address":"1570 3rd Ave New York, NY 10128","Coordinates":"{'latitude': 40.78042, 'longitude': -73.95322}","ReviewCount":"351","Rating":"3.5","ZipCode":""},{"Id":"HoU-pi4U4EK-AwkTxNCAEg","Name":"Lisa's Dumplings","Cuisine":"Chinese","Address":"57th St & 8th Ave New York, NY 10019","Coordinates":"{'latitude': 40.7689469190942, 'longitude': -73.9824067136363}","ReviewCount":"111","Rating":"4.0","ZipCode":""},{"Id":"Tkd1XoIUPa4wor8LN7Cfgw","Name":"Bites Of Xian","Cuisine":"Chinese","Address":"884 6th Ave New York, NY 10001","Coordinates":"{'latitude': 40.74807, 'longitude': -73.988606}","ReviewCount":"9","Rating":"4.0","ZipCode":""},{"Id":"2wVirrAVg3ltAFHoHeXHMQ","Name":"Dim Sum Palace","Cuisine":"Chinese","Address":"59 2nd Ave New York, NY 10003","Coordinates":"{'latitude': 40.7259, 'longitude': -73.98986}","ReviewCount":"382","Rating":"4.5","ZipCode":""},{"Id":"qH8PVeddtVs9cKN2pwgdkQ","Name":"Hwa Yuan","Cuisine":"Chinese","Address":"42 E Broadway New York, NY 10002","Coordinates":"{'latitude': 40.7137, 'longitude': -73.99598}","ReviewCount":"475","Rating":"4.0","ZipCode":""},{"Id":"dhHW8OXzE3NeFqXLiTkX4w","Name":"The Pho Lexington","Cuisine":"Chinese","Address":"788 Lexington Ave New York, NY 10065","Coordinates":"{'latitude': 40.76378659950208, 'longitude': -73.96734405308962}","ReviewCount":"33","Rating":"4.0","ZipCode":""},{"Id":"aJKpUrLLNX3dy7NJCriqcQ","Name":"ER Hot Pot","Cuisine":"Chinese","Address":"11 W 36th St New York, NY 10018","Coordinates":"{'latitude': 40.75027186302423, 'longitude': -73.9844033}","ReviewCount":"83","Rating":"4.0","ZipCode":""},{"Id":"gDCK63W5_8-tdCCWr92rbw","Name":"Shan","Cuisine":"Chinese","Address":"191 Smith St Brooklyn, NY 11201","Coordinates":"{'latitude': 40.68524, 'longitude': -73.99133}","ReviewCount":"78","Rating":"4.5","ZipCode":""},{"Id":"SYFLyQAFRFoDURRWafeLKA","Name":"Lin & Daughters","Cuisine":"Chinese","Address":"181 West 4th St New York, NY 10014","Coordinates":"{'latitude': 40.73253, 'longitude': -74.00167}","ReviewCount":"62","Rating":"4.5","ZipCode":""},{"Id":"9U5tPyF6QEiVntlyTemxKA","Name":"House of Joy","Cuisine":"Chinese","Address":"28 Pell St New York, NY 10013","Coordinates":"{'latitude': 40.71510354400104, 'longitude': -73.998459}","ReviewCount":"282","Rating":"4.0","ZipCode":""},{"Id":"Pr-q47vsmM4aoc2t_Sfk8w","Name":"Momofuku Noodle Bar - Uptown","Cuisine":"Chinese","Address":"10 Columbus Cir Third Floor New York, NY 10019","Coordinates":"{'latitude': 40.76802583631109, 'longitude': -73.9829243}","ReviewCount":"593","Rating":"4.0","ZipCode":""},{"Id":"aWkekCYI9zNA6xDwYEtYpg","Name":"Golden Wuish","Cuisine":"Chinese","Address":"6 Platt St New York, NY 10038","Coordinates":"{'latitude': 40.707324, 'longitude': -74.006407}","ReviewCount":"122","Rating":"4.0","ZipCode":""},{"Id":"3gqKLANaXNsHZnPDjKrcTg","Name":"Win Son","Cuisine":"Chinese","Address":"159 Graham Ave Brooklyn, NY 11206","Coordinates":"{'latitude': 40.70747, 'longitude': -73.94339}","ReviewCount":"748","Rating":"4.0","ZipCode":""},{"Id":"Bwj7nzWphGV6FaZ_ygTSOg","Name":"Happy Hot Hunan","Cuisine":"Chinese","Address":"969 Amsterdam Ave New York, NY 10025","Coordinates":"{'latitude': 40.80133, 'longitude': -73.96466}","ReviewCount":"191","Rating":"3.5","ZipCode":""},{"Id":"u0qfikB-ppp6UwoNKqxlRw","Name":"Flame","Cuisine":"Chinese","Address":"100 W 82nd St New York, NY 10024","Coordinates":"{'latitude': 40.78396, 'longitude': -73.97444}","ReviewCount":"519","Rating":"4.0","ZipCode":""},{"Id":"vZgJyMZlpSSS_Y-duxd4_A","Name":"Kings Co Imperial","Cuisine":"Chinese","Address":"20 Skillman Ave Brooklyn, NY 11211","Coordinates":"{'latitude': 40.71512, 'longitude': -73.95097}","ReviewCount":"404","Rating":"4.0","ZipCode":""},{"Id":"C0uaRMiXCCtjXdQSZhaU_A","Name":"Chinah","Cuisine":"Chinese","Address":"525 Washington Blvd Ste B Jersey City, NJ 07310","Coordinates":"{'latitude': 40.726938, 'longitude': -74.035569}","ReviewCount":"87","Rating":"4.0","ZipCode":""},{"Id":"I_Va7AZSHpEwX75S-3hHLQ","Name":"Noodle Fun","Cuisine":"Chinese","Address":"1744 1st Ave New York, NY 10128","Coordinates":"{'latitude': 40.7795333862305, 'longitude': -73.9470367431641}","ReviewCount":"168","Rating":"4.0","ZipCode":""},{"Id":"inp9N7bo9zqQSa8h8UBhqg","Name":"Empire Szechuan","Cuisine":"Chinese","Address":"193 Columbus Ave New York, NY 10023","Coordinates":"{'latitude': 40.77519480003534, 'longitude': -73.98020523638911}","ReviewCount":"290","Rating":"2.5","ZipCode":""},{"Id":"Q1TpfbuPwKPFrNFyu-u2_g","Name":"Han Dynasty","Cuisine":"Chinese","Address":"1 Dekalb Ave Brooklyn, NY 11201","Coordinates":"{'latitude': 40.69128889156491, 'longitude': -73.98261035889554}","ReviewCount":"413","Rating":"3.5","ZipCode":""},{"Id":"7hh2eP4HVkyjtpcqeITk3Q","Name":"Ollie's Noodle Shop & Grille","Cuisine":"Chinese","Address":"2705 Broadway New York, NY 10025","Coordinates":"{'latitude': 40.79942, 'longitude': -73.96868}","ReviewCount":"216","Rating":"3.0","ZipCode":""},{"Id":"ePVlFbTzdVQFWie__kdplg","Name":"Main Noodle House","Cuisine":"Chinese","Address":"1011 6th Ave New York, NY 10018","Coordinates":"{'latitude': 40.752143, 'longitude': -73.986396}","ReviewCount":"483","Rating":"3.5","ZipCode":""},{"Id":"QBW5zCUwDPcj4nNAi2lhpQ","Name":"Breeze","Cuisine":"Chinese","Address":"595 Manhattan Ave Brooklyn, NY 11222","Coordinates":"{'latitude': 40.72301295163434, 'longitude': -73.95061489999999}","ReviewCount":"4","Rating":"5.0","ZipCode":""},{"Id":"zubN8Ve-RyoljRZV4NRxEQ","Name":"Wo Hop","Cuisine":"Chinese","Address":"17 Mott St New York, NY 10013","Coordinates":"{'latitude': 40.7142239034582, 'longitude': -73.9988691693115}","ReviewCount":"1737","Rating":"4.0","ZipCode":""},{"Id":"SyvC0s3y0ZrtnLbwnvw7tw","Name":"Tim Ho Wan - East Village","Cuisine":"Chinese","Address":"85 4th Ave New York, NY 10003","Coordinates":"{'latitude': 40.731338, 'longitude': -73.990145}","ReviewCount":"1884","Rating":"3.5","ZipCode":""},{"Id":"keZkNTROSC-wFJsXHJdMAA","Name":"Bings & Noodles","Cuisine":"Chinese","Address":"240 Sullivan St New York, NY 10012","Coordinates":"{'latitude': 40.730003496197085, 'longitude': -73.9996072}","ReviewCount":"21","Rating":"4.0","ZipCode":""},{"Id":"SR3w3XVCgpUSwDk4sZzwZQ","Name":"Nai Brother Chinese Sauerkraut Fish","Cuisine":"Chinese","Address":"27-17 42nd Rd Long Island City, NY 11101","Coordinates":"{'latitude': 40.74923, 'longitude': -73.93999}","ReviewCount":"30","Rating":"4.5","ZipCode":""},{"Id":"-lKKdp0XYVJY2DWL-ZSwtQ","Name":"Pac Rim","Cuisine":"Chinese","Address":"308 E 49th St New York, NY 10017","Coordinates":"{'latitude': 40.75373972103885, 'longitude': -73.96800323380802}","ReviewCount":"24","Rating":"4.5","ZipCode":""},{"Id":"Ig5-xwGEXMFssmwIvzxCRQ","Name":"Silky Kitchen","Cuisine":"Chinese","Address":"3002 39th Ave Spc 1 Long Island City, NY 11101","Coordinates":"{'latitude': 40.75274078729301, 'longitude': -73.93320107260092}","ReviewCount":"27","Rating":"4.0","ZipCode":""},{"Id":"4WyXnioHqTIcaFFN_TS1Vw","Name":"Ling Long Xuan Restaurant","Cuisine":"Chinese","Address":"586 Newark Ave Jersey City, NJ 07306","Coordinates":"{'latitude': 40.732364, 'longitude': -74.056919}","ReviewCount":"195","Rating":"4.0","ZipCode":""},{"Id":"wo7-TKh4B37RTBjPNtkp7w","Name":"Chengdu1","Cuisine":"Chinese","Address":"166 15th St Jersey City, NJ 07310","Coordinates":"{'latitude': 40.7323552298113, 'longitude': -74.039612951068}","ReviewCount":"131","Rating":"3.5","ZipCode":""},{"Id":"oTkzgr7hzOAdlP99Auj3GQ","Name":"Momosan Ramen & Sake - New York","Cuisine":"Chinese","Address":"342 Lexington Ave New York, NY 10016","Coordinates":"{'latitude': 40.749928, 'longitude': -73.97736501580663}","ReviewCount":"1848","Rating":"4.0","ZipCode":""},{"Id":"hR3NQG3HB1I6cC88ydbrdw","Name":"Ming Wong Restaurant","Cuisine":"Chinese","Address":"61 Mott St New York, NY 10013","Coordinates":"{'latitude': 40.71601, 'longitude': -73.99838}","ReviewCount":"93","Rating":"4.0","ZipCode":""},{"Id":"_WXa2M3gz2Mi0ys3s88nDw","Name":"La Salle Dumpling Room","Cuisine":"Chinese","Address":"3141 Broadway New York, NY 10027","Coordinates":"{'latitude': 40.81403, 'longitude': -73.95983}","ReviewCount":"323","Rating":"4.0","ZipCode":""},{"Id":"VpInBiE272MaN1Hi0DA-Zw","Name":"Sachi Asian Bistro","Cuisine":"Chinese","Address":"713 2nd Ave New York, NY 10016","Coordinates":"{'latitude': 40.7478, 'longitude': -73.97406}","ReviewCount":"267","Rating":"4.0","ZipCode":""},{"Id":"wpJGWi1LQsCd7Leq3Y4RqQ","Name":"Chef Tan Newport \u8700\u6e58\u95e8\u7b2c","Cuisine":"Chinese","Address":"558 Washington Blvd Jersey City, NJ 07310","Coordinates":"{'latitude': 40.7283333339534, 'longitude': -74.0344276659991}","ReviewCount":"224","Rating":"3.5","ZipCode":""},{"Id":"zYoL-o9YJpGTwJ-Gmj8AFA","Name":"Jue Lan Club","Cuisine":"Chinese","Address":"49 W 20th St New York, NY 10011","Coordinates":"{'latitude': 40.7409694, 'longitude': -73.9934031}","ReviewCount":"758","Rating":"3.5","ZipCode":""},{"Id":"YigPOZxASGQX1IniEyCp8g","Name":"La Dinastia","Cuisine":"Chinese","Address":"145 W 72nd St New York, NY 10023","Coordinates":"{'latitude': 40.77833, 'longitude': -73.98022}","ReviewCount":"258","Rating":"3.5","ZipCode":""},{"Id":"8XJrpuI6RHMXmjrVzP03dw","Name":"Jing Li","Cuisine":"Chinese","Address":"27-35 Jackson Ave Long Island city, NY 11101","Coordinates":"{'latitude': 40.74816, 'longitude': -73.94031}","ReviewCount":"40","Rating":"4.0","ZipCode":""},{"Id":"ybQV8joopvU1_gG2RwLRog","Name":"Wok City","Cuisine":"Chinese","Address":"153 Amsterdam Ave New York, NY 10023","Coordinates":"{'latitude': 40.7752417820046, 'longitude': -73.983876645396}","ReviewCount":"109","Rating":"3.0","ZipCode":""},{"Id":"ntuyP7MwZiD7LHg_wW4neQ","Name":"Calle Dao Downtown","Cuisine":"Chinese","Address":"543 Laguardia Pl New York, NY 10012","Coordinates":"{'latitude': 40.72837, 'longitude': -73.998107}","ReviewCount":"12","Rating":"4.5","ZipCode":""},{"Id":"fbxOVzLvmIB13_5adb1hfQ","Name":"Our New Place","Cuisine":"Chinese","Address":"242 E 79th St New York, NY 10075","Coordinates":"{'latitude': 40.77347, 'longitude': -73.95576}","ReviewCount":"30","Rating":"4.0","ZipCode":""},{"Id":"2tR7d61tBGNlGaJRYvrN0Q","Name":"Dumplings & Things","Cuisine":"Chinese","Address":"45-26 46th St Sunnyside, NY 11104","Coordinates":"{'latitude': 40.7425888323281, 'longitude': -73.9189697784327}","ReviewCount":"196","Rating":"3.5","ZipCode":""},{"Id":"Xf6e3HaP0AgMBxY7dEDkOA","Name":"99 Favor Taste - New York","Cuisine":"Chinese","Address":"285 Grand St New York, NY 10002","Coordinates":"{'latitude': 40.7176199, 'longitude': -73.99249}","ReviewCount":"2149","Rating":"4.0","ZipCode":""},{"Id":"wzmeaMTm5cZ1JCjep7iQeA","Name":"ZLS BBQ","Cuisine":"Chinese","Address":"219 E 23rd St New York, NY 10010","Coordinates":"{'latitude': 40.73852, 'longitude': -73.98201}","ReviewCount":"36","Rating":"4.0","ZipCode":""},{"Id":"-Exv1AEsaKU6Cdb2TO_ZUg","Name":"The Lobster Club","Cuisine":"Chinese","Address":"98 E 53rd St New York, NY 10022","Coordinates":"{'latitude': 40.758301, 'longitude': -73.971868}","ReviewCount":"153","Rating":"4.0","ZipCode":""},{"Id":"oFBgvlELwMtvqA0gcGr96g","Name":"Yong Kang Street","Cuisine":"Chinese","Address":"1000 8th Ave New York, NY 10019","Coordinates":"{'latitude': 40.767124, 'longitude': -73.983013}","ReviewCount":"93","Rating":"3.5","ZipCode":""},{"Id":"NebgteFykeM1gwiVgPcCHw","Name":"The Handpulled Noodle","Cuisine":"Chinese","Address":"3600 Broadway Ste 3 New York, NY 10031","Coordinates":"{'latitude': 40.828384, 'longitude': -73.948674}","ReviewCount":"1132","Rating":"4.0","ZipCode":""},{"Id":"BF5rzGE9OOTOUVH0pjHa5Q","Name":"Shanghai Villa","Cuisine":"Chinese","Address":"144 West 4th St New York, NY 10012","Coordinates":"{'latitude': 40.73135, 'longitude': -74.00048}","ReviewCount":"18","Rating":"4.5","ZipCode":""},{"Id":"oTL_nPII6x0HfPVpEQklUg","Name":"PLANTA Queen Nomad","Cuisine":"Chinese","Address":"15 W 27th St New York, NY 10001","Coordinates":"{'latitude': 40.744435, 'longitude': -73.98832}","ReviewCount":"664","Rating":"4.5","ZipCode":""},{"Id":"1XgqwPF8JN-OVYDaKmO6SQ","Name":"Jiabun Gulp","Cuisine":"Chinese","Address":"42-45 27th St New York, NY 11101","Coordinates":"{'latitude': 40.749195168728335, 'longitude': -73.9406926174587}","ReviewCount":"1","Rating":"5.0","ZipCode":""},{"Id":"k8GFfCXO2FIIJIo0ICYSRA","Name":"Bao Bao Cafe","Cuisine":"Chinese","Address":"106 Greenwich St New York, NY 10006","Coordinates":"{'latitude': 40.70854, 'longitude': -74.01367}","ReviewCount":"251","Rating":"4.0","ZipCode":""},{"Id":"BrqL8rypDEnfjKlqaMd-ng","Name":"Brooklyn Dim Sum","Cuisine":"Chinese","Address":"40-05 Skillman Ave Queens, NY 11104","Coordinates":"{'latitude': 40.747467, 'longitude': -73.92322}","ReviewCount":"3","Rating":"4.0","ZipCode":""},{"Id":"dpCSDy9uefOEcY44FHss2Q","Name":"Hyo Dong Gak","Cuisine":"Chinese","Address":"51 W 35th St New York, NY 10001","Coordinates":"{'latitude': 40.7501219, 'longitude': -73.9862269}","ReviewCount":"451","Rating":"3.5","ZipCode":""},{"Id":"bL2lVltPHfCeCabS51-pxQ","Name":"East Season Restaurant","Cuisine":"Chinese","Address":"244 Canal St New York, NY 10013","Coordinates":"{'latitude': 40.718020814686966, 'longitude': -74.00038375556673}","ReviewCount":"17","Rating":"4.0","ZipCode":""},{"Id":"AEkpyAGcVe5NgH2Nb7fCNQ","Name":"Nuevo Jardin De China Restaurant","Cuisine":"Chinese","Address":"3205 Broadway Astoria, NY 11106","Coordinates":"{'latitude': 40.7615513755699, 'longitude': -73.9243148820204}","ReviewCount":"244","Rating":"3.5","ZipCode":""},{"Id":"Aux2Mp7bGnF3S6h60ab3iQ","Name":"Yummy City","Cuisine":"Chinese","Address":"1557 Lexington Ave New York, NY 10029","Coordinates":"{'latitude': 40.7879244458184, 'longitude': -73.948986355818}","ReviewCount":"61","Rating":"4.5","ZipCode":""},{"Id":"zb78ua-FlfFRj8v082giBw","Name":"Jimmy's House","Cuisine":"Chinese","Address":"162 E 25th St New York, NY 10010","Coordinates":"{'latitude': 40.74016, 'longitude': -73.98256}","ReviewCount":"144","Rating":"3.5","ZipCode":""},{"Id":"TwxP5xU_xyzlf7SVzCnpuA","Name":"Proong Noodle Bar","Cuisine":"Chinese","Address":"347 1st Ave New York, NY 10010","Coordinates":"{'latitude': 40.73528, 'longitude': -73.98003}","ReviewCount":"198","Rating":"4.5","ZipCode":""},{"Id":"k7bcuW4ZkupwkhFQrNOyOA","Name":"Knock Knock","Cuisine":"Chinese","Address":"42-44 Crescent St Long Island City, NY 11101","Coordinates":"{'latitude': 40.74965019175083, 'longitude': -73.94174549999997}","ReviewCount":"69","Rating":"4.5","ZipCode":""},{"Id":"L37A2JWXfwR_PgKColA8xA","Name":"Big Wong","Cuisine":"Chinese","Address":"67 Mott St New York, NY 10013","Coordinates":"{'latitude': 40.71627244103162, 'longitude': -73.99827844267524}","ReviewCount":"1599","Rating":"3.5","ZipCode":""},{"Id":"WIj12zDqIbBucW1hXYhrew","Name":"King's Kitchen","Cuisine":"Chinese","Address":"92 E Broadway New York, NY 10002","Coordinates":"{'latitude': 40.71399, 'longitude': -73.99367}","ReviewCount":"323","Rating":"4.0","ZipCode":""},{"Id":"SFleMiroXTeWnXfonRic-w","Name":"Fast Wok","Cuisine":"Chinese","Address":"260 Brook Ave Bronx, NY 10454","Coordinates":"{'latitude': 40.808, 'longitude': -73.9187199}","ReviewCount":"8","Rating":"4.0","ZipCode":""},{"Id":"bDsXyYwzk4I9_7l51D_gaA","Name":"Cafe Evergreen","Cuisine":"Chinese","Address":"1367 1st Ave New York, NY 10021","Coordinates":"{'latitude': 40.76891, 'longitude': -73.9556}","ReviewCount":"214","Rating":"3.5","ZipCode":""},{"Id":"Dqp5Itsj9dN0Ewz8Gm853g","Name":"Philippe Chow","Cuisine":"Chinese","Address":"355 W 16th St New York, NY 10011","Coordinates":"{'latitude': 40.74213, 'longitude': -74.0038}","ReviewCount":"188","Rating":"3.5","ZipCode":""},{"Id":"yVI01P3ApyLlkqtOfgki7A","Name":"Bei Jing Chinese Foods","Cuisine":"Chinese","Address":"860 10th Ave New York, NY 10019","Coordinates":"{'latitude': 40.768619, 'longitude': -73.98851}","ReviewCount":"29","Rating":"3.0","ZipCode":""},{"Id":"2J3--ZI6CcoYLWSYYVdt7Q","Name":"Milu","Cuisine":"Chinese","Address":"333 Park Ave S New York, NY 10010","Coordinates":"{'latitude': 40.741084, 'longitude': -73.985324}","ReviewCount":"217","Rating":"4.5","ZipCode":""},{"Id":"ejdQq4SvCv-qE7qSYhtVoA","Name":"Mama Lee - Williamsburg","Cuisine":"Chinese","Address":"66 Grand St Brooklyn, NY 11249","Coordinates":"{'latitude': 40.715591, 'longitude': -73.9649236}","ReviewCount":"23","Rating":"4.5","ZipCode":""},{"Id":"QhE50zhSMnQaudpHW1jp7g","Name":"The Tyger","Cuisine":"Chinese","Address":"1 Howard St New York, NY 10013","Coordinates":"{'latitude': 40.7189, 'longitude': -73.99942}","ReviewCount":"482","Rating":"4.0","ZipCode":""},{"Id":"IhSVn0TaX8xXb3wcQ-fgcA","Name":"Vanessa's Dumpling House","Cuisine":"Chinese","Address":"118A Eldridge St New York, NY 10002","Coordinates":"{'latitude': 40.71839, 'longitude': -73.9917399}","ReviewCount":"2845","Rating":"4.0","ZipCode":""},{"Id":"8ig0yf0003DAp4YOGTlbVg","Name":"Spicy Village","Cuisine":"Chinese","Address":"68 Forsyth St Ste B New York, NY 10002","Coordinates":"{'latitude': 40.71695, 'longitude': -73.99327}","ReviewCount":"837","Rating":"4.0","ZipCode":""},{"Id":"P2bxlKAmRWZIpHdJ_JT3fg","Name":"East Harbor Seafood Palace ","Cuisine":"Chinese","Address":"714 65th St Brooklyn, NY 11220","Coordinates":"{'latitude': 40.633425, 'longitude': -74.014425}","ReviewCount":"820","Rating":"4.0","ZipCode":""},{"Id":"yj9vVa08ABH6BBOLHMfJag","Name":"Bund Dumpling House","Cuisine":"Chinese","Address":"25-08 Broadway Astoria, NY 11106","Coordinates":"{'latitude': 40.7631578922095, 'longitude': -73.9282292}","ReviewCount":"326","Rating":"4.0","ZipCode":""},{"Id":"kBZggrnSP1kcUMnsnfkTaQ","Name":"Nan Xiang Xiao Long Bao - Flushing","Cuisine":"Chinese","Address":"39-16 Prince St Ste 104 Flushing, NY 11354","Coordinates":"{'latitude': 40.75924, 'longitude': -73.8326}","ReviewCount":"4595","Rating":"4.0","ZipCode":""},{"Id":"PGeL1b4xNJggpZsHEGoxjg","Name":"Mr Chow","Cuisine":"Chinese","Address":"121 Hudson St New York, NY 10013","Coordinates":"{'latitude': 40.7162608674808, 'longitude': -74.00935559331678}","ReviewCount":"455","Rating":"3.0","ZipCode":""},{"Id":"tLg1gQ1tqYCT-5gGsOwHfA","Name":"Hannah Fun Chinese Restaurant","Cuisine":"Chinese","Address":"6619 Bergenline Ave West New York, NJ 07093","Coordinates":"{'latitude': 40.79401, 'longitude': -74.01282}","ReviewCount":"16","Rating":"4.5","ZipCode":""},{"Id":"HScFap2SwbUlfC-QXVkxFA","Name":"Xi'an Famous Foods","Cuisine":"Chinese","Address":"37 W 43rd New York, NY 10036","Coordinates":"{'latitude': 40.755136, 'longitude': -73.982194}","ReviewCount":"1691","Rating":"4.0","ZipCode":""},{"Id":"F2KRHRtnIAZJezs9UC2u6w","Name":"Chelsea Golden Wok","Cuisine":"Chinese","Address":"209 8th Ave New York, NY 10011","Coordinates":"{'latitude': 40.74391, 'longitude': -73.99973}","ReviewCount":"78","Rating":"3.0","ZipCode":""},{"Id":"LDScBEu3splSQlhGBEH2hg","Name":"Bao by Kaya","Cuisine":"Chinese","Address":"570 Lexington Ave New York, NY 10022","Coordinates":"{'latitude': 40.7569200941962, 'longitude': -73.9723208919168}","ReviewCount":"222","Rating":"4.0","ZipCode":""},{"Id":"U74_3F7r3tMhd6dmTmDBxQ","Name":"Macao Trading Company","Cuisine":"Chinese","Address":"311 Church St New York, NY 10013","Coordinates":"{'latitude': 40.719623, 'longitude': -74.003904}","ReviewCount":"860","Rating":"4.0","ZipCode":""},{"Id":"eEeBhw0UeyEyH5elwm9ULg","Name":"Juqi","Cuisine":"Chinese","Address":"133-36 37th Ave Flushing, NY 11354","Coordinates":"{'latitude': 40.76030658850499, 'longitude': -73.8335025}","ReviewCount":"215","Rating":"4.0","ZipCode":""},{"Id":"62Kedrco374IuZ_OFb0BxA","Name":"3 Times","Cuisine":"Chinese","Address":"818 Broadway New York, NY 10003","Coordinates":"{'latitude': 40.73285, 'longitude': -73.99104}","ReviewCount":"250","Rating":"4.0","ZipCode":""},{"Id":"-2FAuHbWsc_rxuSaeYAhCw","Name":"Green Garden Village","Cuisine":"Chinese","Address":"216 Grand St New York, NY 10013","Coordinates":"{'latitude': 40.7190136, 'longitude': -73.9959638}","ReviewCount":"96","Rating":"4.0","ZipCode":""},{"Id":"rkeH5HJIuX7ZcOaYNum9xA","Name":"Wu's Wonton King","Cuisine":"Chinese","Address":"165 E Broadway New York, NY 10002","Coordinates":"{'latitude': 40.7139415501646, 'longitude': -73.9899386554248}","ReviewCount":"494","Rating":"3.5","ZipCode":""},{"Id":"vPbJRg5umcRMELTDsJik_A","Name":"Hong Kong Noodle & Sariku Sushi","Cuisine":"Chinese","Address":"174 Lexington Ave Ste 7387 New York, NY 10016","Coordinates":"{'latitude': 40.7444, 'longitude': -73.98146}","ReviewCount":"49","Rating":"3.5","ZipCode":""},{"Id":"r5LkBaz7wkLe8I5umglUXQ","Name":"Bites of Xi\u2019an","Cuisine":"Chinese","Address":"555 8th Ave New York, NY 10018","Coordinates":"{'latitude': 40.7546, 'longitude': -73.99194}","ReviewCount":"1","Rating":"5.0","ZipCode":""},{"Id":"9-vKFnUby_6-pR6UJxjzMw","Name":"Sun Hing Lung Co","Cuisine":"Chinese","Address":"58 Henry St New York, NY 10002","Coordinates":"{'latitude': 40.7127362, 'longitude': -73.9950764600962}","ReviewCount":"245","Rating":"4.5","ZipCode":""},{"Id":"zj4vqgljRhxwWlvttgFRKQ","Name":"wagamama - NoMad","Cuisine":"Chinese","Address":"210 5th Ave New York, NY 10010","Coordinates":"{'latitude': 40.74336, 'longitude': -73.98873}","ReviewCount":"1119","Rating":"3.5","ZipCode":""},{"Id":"2fZhuDglZd7ezwTACqIs-w","Name":"Vanessa\u2019s Dumpling House","Cuisine":"Chinese","Address":"1623 2nd Ave New York, NY 10028","Coordinates":"{'latitude': 40.77689383926089, 'longitude': -73.95270970510296}","ReviewCount":"39","Rating":"4.0","ZipCode":""},{"Id":"oJjMYhA6z1_BVaQpSdyl8g","Name":"Golden Forest","Cuisine":"Chinese","Address":"353 Grand St New York, NY 10002","Coordinates":"{'latitude': 40.7167, 'longitude': -73.98945}","ReviewCount":"227","Rating":"4.0","ZipCode":""},{"Id":"eQKYZWnBjPUjINAnFmrmbA","Name":"P.F. Chang's","Cuisine":"Chinese","Address":"10 Port Imperial Blvd W West NY, NJ 07093","Coordinates":"{'latitude': 40.7802837, 'longitude': -74.00958480000001}","ReviewCount":"569","Rating":"3.0","ZipCode":""},{"Id":"4npQPrRezdLIkKWMdXpjFA","Name":"The Monkey King","Cuisine":"Chinese","Address":"1329 Willoughby Ave Brooklyn, NY 11237","Coordinates":"{'latitude': 40.7064711, 'longitude': -73.9209643}","ReviewCount":"135","Rating":"4.5","ZipCode":""},{"Id":"7wrFd9tnIBMClzDnrWdSNw","Name":"Chinatown Kitchen","Cuisine":"Chinese","Address":"450 60th St West New York, NJ 07093","Coordinates":"{'latitude': 40.7885757502878, 'longitude': -74.0158536518411}","ReviewCount":"14","Rating":"4.0","ZipCode":""},{"Id":"VG0XPr9jSrgd8p5WPD1HaQ","Name":"Ollies To Go","Cuisine":"Chinese","Address":"307 E 77th St New York, NY 10075","Coordinates":"{'latitude': 40.771918, 'longitude': -73.955451}","ReviewCount":"106","Rating":"3.5","ZipCode":""},{"Id":"hNFe8WhCibrqT4sFcZmAgw","Name":"Kong Sihk Tong \u6e2f\u98df\u5802","Cuisine":"Chinese","Address":"65 Bayard St New York, NY 10013","Coordinates":"{'latitude': 40.715433714742154, 'longitude': -73.9981186386701}","ReviewCount":"760","Rating":"4.0","ZipCode":""},{"Id":"vQX7y4Yoknpso033IDATqA","Name":"Wenwen","Cuisine":"Chinese","Address":"1025 Manhattan Ave Brooklyn, NY 11222","Coordinates":"{'latitude': 40.73398, 'longitude': -73.95504}","ReviewCount":"199","Rating":"4.0","ZipCode":""},{"Id":"8cyRl5HIQzbkYD7orq223g","Name":"SHI","Cuisine":"Chinese","Address":"4720 Center Blvd Long Island City, NY 11109","Coordinates":"{'latitude': 40.74599336793073, 'longitude': -73.957094}","ReviewCount":"925","Rating":"3.5","ZipCode":""},{"Id":"KBZQN540Xz6LbXLRVOMc0w","Name":"Hunan Delight","Cuisine":"Chinese","Address":"1467 York Ave New York, NY 10075","Coordinates":"{'latitude': 40.770678, 'longitude': -73.951296}","ReviewCount":"207","Rating":"3.5","ZipCode":""},{"Id":"DKGUSLiqNchBNatKoPM9QQ","Name":"Junzi Kitchen","Cuisine":"Chinese","Address":"2896 Broadway New York, NY 10025","Coordinates":"{'latitude': 40.8057641877461, 'longitude': -73.9652019005902}","ReviewCount":"215","Rating":"4.0","ZipCode":""},{"Id":"fUcjBGgmTlvxXn2azvAijw","Name":"Yumpling","Cuisine":"Chinese","Address":"49-11 Vernon Blvd Long Island City, NY 11101","Coordinates":"{'latitude': 40.74303458141987, 'longitude': -73.95385286814118}","ReviewCount":"391","Rating":"4.5","ZipCode":""},{"Id":"DnJoD7VxgvbYxkF0WFxKog","Name":"Lisa's Dumplings","Cuisine":"Chinese","Address":"1000 S 8th Ave Turnstyle Underground Market New York, NY 10019","Coordinates":"{'latitude': 40.76715, 'longitude': -73.98298}","ReviewCount":"8","Rating":"5.0","ZipCode":""},{"Id":"DpfE0gPBXj-aj2pnEh4E2Q","Name":"Wei Williamsburg","Cuisine":"Chinese","Address":"145 Borinquen Pl Brooklyn, NY 11211","Coordinates":"{'latitude': 40.7107868, 'longitude': -73.9542168}","ReviewCount":"238","Rating":"4.0","ZipCode":""},{"Id":"B87c3bE_u53yNYO1cmHSIw","Name":"Flor de Mayo","Cuisine":"Chinese","Address":"2651 Broadway New York, NY 10025","Coordinates":"{'latitude': 40.797859, 'longitude': -73.969948}","ReviewCount":"643","Rating":"4.0","ZipCode":""},{"Id":"56rTisZA_iEekMsyZHvSHQ","Name":"MomenTea Kitchen","Cuisine":"Chinese","Address":"213 W 40th St New York, NY 10018","Coordinates":"{'latitude': 40.7551628731681, 'longitude': -73.9885599911213}","ReviewCount":"122","Rating":"4.0","ZipCode":""},{"Id":"y_ylOQzCP-9D_4DcUIJ3jA","Name":"Shabu Tatsu East Village","Cuisine":"Chinese","Address":"216 E 10th St New York, NY 10003","Coordinates":"{'latitude': 40.729147, 'longitude': -73.985906}","ReviewCount":"680","Rating":"4.0","ZipCode":""},{"Id":"wxUTM-FkpCvnoTGJfSXkWg","Name":"China King","Cuisine":"Chinese","Address":"285 3rd Ave New York, NY 10010","Coordinates":"{'latitude': 40.738249, 'longitude': -73.98336516258168}","ReviewCount":"53","Rating":"3.0","ZipCode":""},{"Id":"7uAxbCgcY33A0NeUb2frlQ","Name":"Vybes 109","Cuisine":"Chinese","Address":"109 Mulberry St New York, NY 10013","Coordinates":"{'latitude': 40.71755, 'longitude': -73.99859}","ReviewCount":"56","Rating":"4.5","ZipCode":""},{"Id":"hdiQrGDT8enOzpxaipBzNA","Name":"Mee Noodle Shop & Grill","Cuisine":"Chinese","Address":"223 1st Ave New York, NY 10003","Coordinates":"{'latitude': 40.7309882, 'longitude': -73.983084}","ReviewCount":"144","Rating":"3.0","ZipCode":""},{"Id":"7hyQqnnAisSL-nfIWCPziQ","Name":"Chop Shop","Cuisine":"Chinese","Address":"254 10th Ave New York, NY 10001","Coordinates":"{'latitude': 40.7486687, 'longitude': -74.0031128}","ReviewCount":"270","Rating":"4.0","ZipCode":""},{"Id":"N--h7x9gMLbu7EgCLZ_w9A","Name":"JingLi","Cuisine":"Chinese","Address":"27-35 Jackson Ave Long Island City, NY 11101","Coordinates":"{'latitude': 40.74819542402061, 'longitude': -73.94030605276092}","ReviewCount":"37","Rating":"3.5","ZipCode":""},{"Id":"YvMLbSK_tWmaOjYGwOUd5Q","Name":"Xi\u2019an Famous Foods","Cuisine":"Chinese","Address":"8 Liberty Pl New York, NY 10038","Coordinates":"{'latitude': 40.70919, 'longitude': -74.00934}","ReviewCount":"191","Rating":"4.0","ZipCode":""},{"Id":"9HD5HQiTkURkx5i7hL92EA","Name":"Spicy Moon West Village","Cuisine":"Chinese","Address":"68 W 3rd St New York, NY 10012","Coordinates":"{'latitude': 40.729318, 'longitude': -73.99832}","ReviewCount":"383","Rating":"4.5","ZipCode":""},{"Id":"qEe7nIhPfEL6L0-VYhWRrA","Name":"Raku","Cuisine":"Chinese","Address":"48 Macdougal St New York, NY 10012","Coordinates":"{'latitude': 40.72728, 'longitude': -74.00252}","ReviewCount":"915","Rating":"4.5","ZipCode":""},{"Id":"Yb6PQ_4YQpJ0SVZ1tetkbg","Name":"Queens Seafood Restaurant","Cuisine":"Chinese","Address":"8222 45th Ave Elmhurst, NY 11373","Coordinates":"{'latitude': 40.7415032, 'longitude': -73.8825862}","ReviewCount":"147","Rating":"4.0","ZipCode":""},{"Id":"U5dCWjAxrvLLMH1ErpGfvw","Name":"A-jiao","Cuisine":"Chinese","Address":"1817 2nd Ave New York, NY 10128","Coordinates":"{'latitude': 40.783159, 'longitude': -73.948244}","ReviewCount":"155","Rating":"4.0","ZipCode":""},{"Id":"5tWpAFpF618KJxBhHJzF7g","Name":"E Noodle \u7ca5\u9eb5\u9928 - Chinatown","Cuisine":"Chinese","Address":"5 Catherine St New York, NY 10038","Coordinates":"{'latitude': 40.71386837257795, 'longitude': -73.99728057321444}","ReviewCount":"159","Rating":"4.0","ZipCode":""},{"Id":"bacGm8cL-vUPHdR18_M7bw","Name":"Charley Mom Restaurant","Cuisine":"Chinese","Address":"1580 York Ave New York, NY 10028","Coordinates":"{'latitude': 40.7740287780762, 'longitude': -73.9481582641602}","ReviewCount":"105","Rating":"3.5","ZipCode":""},{"Id":"eZ_NxH1_S-neZTT7fxsXhA","Name":"Uncle Ted's Modern Chinese Cuisine","Cuisine":"Chinese","Address":"38 E 8th St New York, NY 10003","Coordinates":"{'latitude': 40.73128837072725, 'longitude': -73.99430831043338}","ReviewCount":"33","Rating":"4.0","ZipCode":""},{"Id":"pBIvJHn65iqlUh1L2tN-qg","Name":"TAO Downtown Restaurant","Cuisine":"Chinese","Address":"92 9th Ave New York City, NY 10011","Coordinates":"{'latitude': 40.74254977237927, 'longitude': -74.00384640211655}","ReviewCount":"1728","Rating":"3.5","ZipCode":""},{"Id":"ONQRhDuWv0e9R5xOiI7YAA","Name":"Gyu-Kaku Japanese BBQ","Cuisine":"Chinese","Address":"321 W 44th St Ste 103 New York, NY 10036","Coordinates":"{'latitude': 40.759142237934725, 'longitude': -73.98989855434367}","ReviewCount":"1376","Rating":"4.0","ZipCode":""},{"Id":"aije_BqBVVl-6T13QsnRqQ","Name":"August Gatherings","Cuisine":"Chinese","Address":"266 Canal St New York, NY 10013","Coordinates":"{'latitude': 40.7186556, 'longitude': -74.0011004}","ReviewCount":"328","Rating":"3.5","ZipCode":""},{"Id":"omOPvWNdukvWOC0peXPyng","Name":"Fairview Chinese Restaurant","Cuisine":"Chinese","Address":"363 Fairview Ave Fairview, NJ 07022","Coordinates":"{'latitude': 40.81084, 'longitude': -74.00097}","ReviewCount":"166","Rating":"4.0","ZipCode":""},{"Id":"Q99VEcN9r1Qqmvnm5I03tw","Name":"WAU","Cuisine":"Chinese","Address":"434 Amsterdam Ave New York, NY 10024","Coordinates":"{'latitude': 40.784489, 'longitude': -73.977739}","ReviewCount":"191","Rating":"4.0","ZipCode":""},{"Id":"-EqTI_ssZs0iNM39KjzlQA","Name":"River House Chinese Cuisine","Cuisine":"Chinese","Address":"725 River Rd Edgewater, NJ 07020","Coordinates":"{'latitude': 40.8197069486449, 'longitude': -73.977166166197}","ReviewCount":"180","Rating":"4.0","ZipCode":""},{"Id":"3NYQQckItp9l7GDzALw79w","Name":"Lin's Gourmet","Cuisine":"Chinese","Address":"1097 2nd Ave New York, NY 10022","Coordinates":"{'latitude': 40.759891, 'longitude': -73.965187}","ReviewCount":"83","Rating":"3.5","ZipCode":""},{"Id":"E7q1Qf6380N_aMqz28EgNw","Name":"Duckedup","Cuisine":"Chinese","Address":"139 Ludlow St Ludlow House New York, NY 10002","Coordinates":"{'latitude': 40.7205, 'longitude': -73.98826}","ReviewCount":"5","Rating":"4.5","ZipCode":""},{"Id":"WgQkB7cbPNgj0pLin7gQtw","Name":"La Nueva Victoria","Cuisine":"Chinese","Address":"2536 Broadway New York, NY 10025","Coordinates":"{'latitude': 40.79372, 'longitude': -73.971954}","ReviewCount":"117","Rating":"3.5","ZipCode":""},{"Id":"RoXFN-T1s6moM5smbY_5Gw","Name":"Mee Noodle Shop","Cuisine":"Chinese","Address":"795 9th Ave New York, NY 10019","Coordinates":"{'latitude': 40.7653751, 'longitude': -73.9879042}","ReviewCount":"565","Rating":"3.0","ZipCode":""},{"Id":"pQAtAqPcVnySOtJDAeMhfA","Name":"Raosu Hotpot & Sushi","Cuisine":"Chinese","Address":"310 W 38th St New York, NY 10018","Coordinates":"{'latitude': 40.755015065290166, 'longitude': -73.9925599}","ReviewCount":"81","Rating":"4.0","ZipCode":""},{"Id":"9WVVVBcW5AzptksXe1RAQQ","Name":"Salt & Ginger","Cuisine":"Chinese","Address":"313 Grove St Jersey City, NJ 07302","Coordinates":"{'latitude': 40.71925, 'longitude': -74.04336}","ReviewCount":"27","Rating":"4.0","ZipCode":""},{"Id":"AeNU0DYNtYDVPGnWAIh-0Q","Name":"Wok To Walk","Cuisine":"Chinese","Address":"570 8th Ave New York, NY 10018","Coordinates":"{'latitude': 40.754724, 'longitude': -73.991278}","ReviewCount":"431","Rating":"3.5","ZipCode":""},{"Id":"f_OiLWqldSmNy1MAvtWlPQ","Name":"Cyclo","Cuisine":"Chinese","Address":"5-51 47th Ave Long Island City, NY 11101","Coordinates":"{'latitude': 40.745714, 'longitude': -73.953549}","ReviewCount":"657","Rating":"4.0","ZipCode":""},{"Id":"BCkyeKuJl009EtwPBvVhzA","Name":"Silver Apricot","Cuisine":"Chinese","Address":"20 Cornelia St New York, NY 10014","Coordinates":"{'latitude': 40.73138, 'longitude': -74.00206}","ReviewCount":"79","Rating":"4.0","ZipCode":""},{"Id":"kwqOmEwWJ0D9PyCdFGE3-g","Name":"Xian Famous Foods","Cuisine":"Chinese","Address":"14 E 34th St New York, NY 10016","Coordinates":"{'latitude': 40.747844, 'longitude': -73.983901}","ReviewCount":"738","Rating":"4.0","ZipCode":""},{"Id":"L9SuMN3UsGipopWOe3pr9w","Name":"Chiko","Cuisine":"Chinese","Address":"954 Manhattan Ave Brooklyn, NY 11222","Coordinates":"{'latitude': 40.7319, 'longitude': -73.95422}","ReviewCount":"52","Rating":"4.5","ZipCode":""},{"Id":"XDv71A1J3aIOu_W5sVzZ2w","Name":"Shi Miao Dao - East Village","Cuisine":"Chinese","Address":"33 Saint Marks Pl New York, NY 10003","Coordinates":"{'latitude': 40.72904, 'longitude': -73.9881}","ReviewCount":"130","Rating":"4.0","ZipCode":""},{"Id":"BbODF2tZuw4xW_RFwMzwRg","Name":"Jiangnan Chinese Cuisine","Cuisine":"Chinese","Address":"103 Washington St Fl 2 New York, NY 10006","Coordinates":"{'latitude': 40.7084231394503, 'longitude': -74.0140241895666}","ReviewCount":"72","Rating":"3.5","ZipCode":""},{"Id":"SQT1chaH2EmwYgNvvodGLQ","Name":"Ocean Bay Seafood Restaurant","Cuisine":"Chinese","Address":"83-02 Queens Blvd Elmhurst, NY 11373","Coordinates":"{'latitude': 40.736896, 'longitude': -73.880196}","ReviewCount":"99","Rating":"3.5","ZipCode":""},{"Id":"bSi2f2TaOr4RVTI5eFt0wQ","Name":"Taste Of North China","Cuisine":"Chinese","Address":"75 Montgomery St Jersey City, NJ 07302","Coordinates":"{'latitude': 40.7167868, 'longitude': -74.0377625661521}","ReviewCount":"306","Rating":"3.0","ZipCode":""},{"Id":"JJJ9KQUja_ZWZoS3M2eFaQ","Name":"La Vie En Szechuan","Cuisine":"Chinese","Address":"14 E 33rd St New York, NY 10016","Coordinates":"{'latitude': 40.74758249423549, 'longitude': -73.98439530395629}","ReviewCount":"1","Rating":"5.0","ZipCode":""},{"Id":"KkPanVlxtpsuG0V0IlEchg","Name":"Szechuan","Cuisine":"Chinese","Address":"1347 2nd Ave New York, NY 10021","Coordinates":"{'latitude': 40.768131, 'longitude': -73.959197}","ReviewCount":"2","Rating":"3.5","ZipCode":""},{"Id":"7g9GDy7rPg6yVs4RjTm9FQ","Name":"Number Eleven Food Store","Cuisine":"Chinese","Address":"342 Garden St Hoboken, NJ 07030","Coordinates":"{'latitude': 40.74151, 'longitude': -74.03173}","ReviewCount":"23","Rating":"5.0","ZipCode":""},{"Id":"akWRnF0VFJLJD4uOnGWB-g","Name":"Po Wong Restaurant","Cuisine":"Chinese","Address":"617 Summit Ave Union City, NJ 07087","Coordinates":"{'latitude': 40.758224, 'longitude': -74.044303}","ReviewCount":"41","Rating":"4.0","ZipCode":""},{"Id":"rPTX2J5KGDkN1QhPD-QOvg","Name":"Bites of Xi'an","Cuisine":"Chinese","Address":"318 Livingston St Brooklyn, NY 11217","Coordinates":"{'latitude': 40.688006, 'longitude': -73.982083}","ReviewCount":"211","Rating":"4.5","ZipCode":""},{"Id":"itH4GH2Mw2D5n5kkQAtMog","Name":"Abiko Curry","Cuisine":"Chinese","Address":"2 W 32nd St New York, NY 10001","Coordinates":"{'latitude': 40.74721, 'longitude': -73.986192}","ReviewCount":"1021","Rating":"4.0","ZipCode":""},{"Id":"8ZF3-QQ5ea8zQTeyZ2pIuQ","Name":"Four Four South Village","Cuisine":"Chinese","Address":"11 E 7th St New York, NY 10003","Coordinates":"{'latitude': 40.728920411124825, 'longitude': -73.9898209}","ReviewCount":"91","Rating":"4.5","ZipCode":""},{"Id":"6KWuxjK1ey72cW8LVuoV5A","Name":"Mr Bao","Cuisine":"Chinese","Address":"208 Bedford Ave New York, NY 11249","Coordinates":"{'latitude': 40.717057, 'longitude': -73.958764}","ReviewCount":"90","Rating":"4.0","ZipCode":""},{"Id":"jLhKLKuNPMTzAMJgEY5DsQ","Name":"Monarch Restaurant","Cuisine":"Chinese","Address":"146 Metropolitan Ave Brooklyn, NY 11249","Coordinates":"{'latitude': 40.715895, 'longitude': -73.962271}","ReviewCount":"135","Rating":"4.5","ZipCode":""},{"Id":"cqj7o7uZ_jboXL0BqO4YMg","Name":"Glaze Teriyaki","Cuisine":"Chinese","Address":"643 Lexington Ave New York, NY 10022","Coordinates":"{'latitude': 40.7591909, 'longitude': -73.9704258}","ReviewCount":"339","Rating":"3.5","ZipCode":""},{"Id":"B9Mbi12NpBJkZcRtQNtMBA","Name":"Malaysia Grill","Cuisine":"Chinese","Address":"224 W 104th St New York, NY 10024","Coordinates":"{'latitude': 40.79948, 'longitude': -73.96775}","ReviewCount":"348","Rating":"4.0","ZipCode":""},{"Id":"--SoNTeCXFUx56no0OgibQ","Name":"Bites of Xi'an","Cuisine":"Chinese","Address":"84 E 10th St New York, NY 10003","Coordinates":"{'latitude': 40.73086, 'longitude': -73.989939}","ReviewCount":"95","Rating":"4.5","ZipCode":""},{"Id":"povMiWMMsng7INQFJ3a34w","Name":"ER Hotpot","Cuisine":"Chinese","Address":"1029 6th Ave New York, NY 10018","Coordinates":"{'latitude': 40.7527, 'longitude': -73.98598}","ReviewCount":"3","Rating":"5.0","ZipCode":""},{"Id":"D7ubqwghA8NrJPlI5HZcpw","Name":"Cheli - Flushing","Cuisine":"Chinese","Address":"133-42 39th Ave Ste 102 Flushing, NY 11354","Coordinates":"{'latitude': 40.759323, 'longitude': -73.832629}","ReviewCount":"126","Rating":"4.0","ZipCode":""},{"Id":"uuDvk4EsRUkeTj4jVKJOpw","Name":"Rue 57","Cuisine":"Chinese","Address":"60 W 57th St New York, NY 10019","Coordinates":"{'latitude': 40.7640285260993, 'longitude': -73.9770378404755}","ReviewCount":"1308","Rating":"3.5","ZipCode":""},{"Id":"oyxk3hv9F7dGZGARmNDSYg","Name":"Zoob Zib Thai Authentic Noodle Bar","Cuisine":"Chinese","Address":"460 9th Ave New York, NY 10018","Coordinates":"{'latitude': 40.75438, 'longitude': -73.99536}","ReviewCount":"482","Rating":"4.0","ZipCode":""},{"Id":"q5mXbN2De7X6TthpC2ZDmA","Name":"Big Wong","Cuisine":"Chinese","Address":"683 9th Ave New York, NY 10036","Coordinates":"{'latitude': 40.76185099126434, 'longitude': -73.99049143768632}","ReviewCount":"22","Rating":"2.5","ZipCode":""},{"Id":"uiuntqXKHuduaDNLCAyl4g","Name":"Soo Chow Garden","Cuisine":"Chinese","Address":"607 Gorge Rd Cliffside Park, NJ 07010","Coordinates":"{'latitude': 40.824376, 'longitude': -73.987723}","ReviewCount":"22","Rating":"4.5","ZipCode":""},{"Id":"FXFQJmhK6elesopXdhjvFQ","Name":"Amber","Cuisine":"Chinese","Address":"103 W 70th St New York, NY 10023","Coordinates":"{'latitude': 40.77632084040014, 'longitude': -73.97993601948492}","ReviewCount":"160","Rating":"4.0","ZipCode":""},{"Id":"kWJF8L1u5jdlkLBItUu16w","Name":"Bo Ky","Cuisine":"Chinese","Address":"80 Bayard St New York, NY 10013","Coordinates":"{'latitude': 40.71578, 'longitude': -73.99867}","ReviewCount":"918","Rating":"3.5","ZipCode":""},{"Id":"ZdLS7gD1ulmCPkqNc9_S3A","Name":"Keming Restaurant","Cuisine":"Chinese","Address":"1006 Washington St Hoboken, NJ 07030","Coordinates":"{'latitude': 40.74893, 'longitude': -74.02772}","ReviewCount":"209","Rating":"4.0","ZipCode":""},{"Id":"x5OLFy0hWH2MWRflRCF1QA","Name":"Nan Xiang Express","Cuisine":"Chinese","Address":"167 Grand St Brooklyn, NY 11249","Coordinates":"{'latitude': 40.714728, 'longitude': -73.961372}","ReviewCount":"45","Rating":"4.5","ZipCode":""},{"Id":"0cQcKV7eCOhw7OnflOzr9w","Name":"Zhongzhong Noodles - Roosevelt Island","Cuisine":"Chinese","Address":"568 Main St New York, NY 10044","Coordinates":"{'latitude': 40.762592, 'longitude': -73.949215}","ReviewCount":"86","Rating":"4.5","ZipCode":""},{"Id":"nBm-zxAWg_oA8JNtHxPvcw","Name":"Di Di Dumpling","Cuisine":"Chinese","Address":"38 Lexington Ave New York, NY 10010","Coordinates":"{'latitude': 40.74017, 'longitude': -73.984533}","ReviewCount":"243","Rating":"3.5","ZipCode":""},{"Id":"0d9H27ztGyGHMENp2afAqA","Name":"Xi'an Famous Foods","Cuisine":"Chinese","Address":"26-19 Jackson Ave Long Island City, NY 11101","Coordinates":"{'latitude': 40.7475637, 'longitude': -73.9417967}","ReviewCount":"169","Rating":"4.0","ZipCode":""},{"Id":"vw_Xsqnep2odsL3l5-Tn1w","Name":"P.F. Chang's To Go","Cuisine":"Chinese","Address":"938 3rd Ave New York, NY 10022","Coordinates":"{'latitude': 40.7598503, 'longitude': -73.968008}","ReviewCount":"37","Rating":"2.5","ZipCode":""},{"Id":"wqdFd3DZD_uTXRW784mFkg","Name":"A-Pou's Taste","Cuisine":"Chinese","Address":"963 Grand St Brooklyn, NY 11211","Coordinates":"{'latitude': 40.71326, 'longitude': -73.93616}","ReviewCount":"117","Rating":"4.5","ZipCode":""},{"Id":"GdOl_9iH8gLKeo9yABfyoQ","Name":"Chef Tan East Village","Cuisine":"Chinese","Address":"37 St Marks Pl New York, NY 10003","Coordinates":"{'latitude': 40.72887, 'longitude': -73.98807}","ReviewCount":"51","Rating":"4.0","ZipCode":""},{"Id":"ssGhZaLVt686Vx5Kv6pqTQ","Name":"New China","Cuisine":"Chinese","Address":"285 3rd Ave New York, NY 10010","Coordinates":"{'latitude': 40.738246197401274, 'longitude': -73.98333319999999}","ReviewCount":"1","Rating":"4.0","ZipCode":""},{"Id":"3NHexRXpc3Asuo0elQcDSw","Name":"Double Happiness Palace","Cuisine":"Chinese","Address":"212-12 Northern Blvd Bayside, NY 11361","Coordinates":"{'latitude': 40.7598509, 'longitude': -73.7707248}","ReviewCount":"177","Rating":"4.5","ZipCode":""},{"Id":"H87c1gVVCKneyI0LxaDFxQ","Name":"Corgi Jianbing","Cuisine":"Chinese","Address":"4405 Hunter St Long Island City, NY 11101","Coordinates":"{'latitude': 40.7474918, 'longitude': -73.9433018}","ReviewCount":"39","Rating":"4.5","ZipCode":""},{"Id":"JslnSWyVHejiDe4Pywz-bQ","Name":"EA Dumpling","Cuisine":"Chinese","Address":"924 3rd Ave New York, NY 10022","Coordinates":"{'latitude': 40.75946872176375, 'longitude': -73.96844435547088}","ReviewCount":"2","Rating":"4.0","ZipCode":""},{"Id":"3ik-lT8Pu7PAc_04af1J0w","Name":"Vegan Ginger Root","Cuisine":"Chinese","Address":"1164 1st Ave New York, NY 10065","Coordinates":"{'latitude': 40.76252961552352, 'longitude': -73.95957}","ReviewCount":"153","Rating":"4.0","ZipCode":""},{"Id":"RoqLH-4rDugHlduthnZggg","Name":"Flame Hibachi","Cuisine":"Chinese","Address":"381 3rd Ave 2FL New York, NY 10016","Coordinates":"{'latitude': 40.74152, 'longitude': -73.98097}","ReviewCount":"219","Rating":"4.0","ZipCode":""},{"Id":"YvAeVNrMQGim9VTkilwUgA","Name":"Chinah","Cuisine":"Chinese","Address":"100 Maiden Ln New York, NY 10038","Coordinates":"{'latitude': 40.706649, 'longitude': -74.007166}","ReviewCount":"87","Rating":"4.5","ZipCode":""},{"Id":"_7_u6U5uwhDkVi7JJakyGA","Name":"Gen Korean BBQ House","Cuisine":"Chinese","Address":"150 E 14th St New York, NY 10003","Coordinates":"{'latitude': 40.73331, 'longitude': -73.98763}","ReviewCount":"181","Rating":"4.0","ZipCode":""},{"Id":"SMImQM_JfZkIZwflTgOAoQ","Name":"Yi Ji Shi Mo Noodle Corp","Cuisine":"Chinese","Address":"88 Elizabeth St New York, NY 10013","Coordinates":"{'latitude': 40.71824, 'longitude': -73.99583}","ReviewCount":"297","Rating":"4.5","ZipCode":""},{"Id":"wPL0epJzosoFRYox1a5lvA","Name":"New Golden Star","Cuisine":"Chinese","Address":"4247 Broadway New York, NY 10033","Coordinates":"{'latitude': 40.8498685, 'longitude': -73.9362273}","ReviewCount":"121","Rating":"4.0","ZipCode":""},{"Id":"Cyv-tW4BljwWnP16HI_zAg","Name":"Taste Kitchen","Cuisine":"Chinese","Address":"316 W 36th St New York, NY 10018","Coordinates":"{'latitude': 40.75374, 'longitude': -73.99342}","ReviewCount":"50","Rating":"3.0","ZipCode":""},{"Id":"0eLtFI6MeEYM2rlMtcjRaQ","Name":"E.A.K. RAMEN and IZAKAYA by MACHIDA SHOTEN Hell\u2019s Kitchen","Cuisine":"Chinese","Address":"360 W 46th St New York, NY 10036","Coordinates":"{'latitude': 40.76055191347044, 'longitude': -73.99018342883555}","ReviewCount":"253","Rating":"4.0","ZipCode":""},{"Id":"EDLKX7cCxPbmbmo1XG3xJQ","Name":"Grand Sichuan","Cuisine":"Chinese","Address":"342 Grove St Jersey City, NJ 07302","Coordinates":"{'latitude': 40.72047, 'longitude': -74.04252}","ReviewCount":"515","Rating":"3.0","ZipCode":""},{"Id":"KUEwlsurqKAl6JcAxzVAvA","Name":"Mr Bing","Cuisine":"Chinese","Address":"230 Park Ave New York, NY 10017","Coordinates":"{'latitude': 40.7544408, 'longitude': -73.97603409999999}","ReviewCount":"3","Rating":"4.5","ZipCode":""},{"Id":"J9UA6rzI5WW_cDGjwDnF5g","Name":"Tsuru Ton Tan","Cuisine":"Chinese","Address":"21 E 16th St New York, NY 10003","Coordinates":"{'latitude': 40.73678, 'longitude': -73.9910699}","ReviewCount":"2314","Rating":"4.0","ZipCode":""},{"Id":"BkXb82Y2OIsQ5RpNNQOYmQ","Name":"China Express","Cuisine":"Chinese","Address":"192 Union Ave Brooklyn, NY 11211","Coordinates":"{'latitude': 40.70606422212563, 'longitude': -73.949992}","ReviewCount":"131","Rating":"4.0","ZipCode":""},{"Id":"3-U_iTrAe3Zvj6L1ncsaPw","Name":"NY Chinese Joint","Cuisine":"Chinese","Address":"New York, NY 10017","Coordinates":"{'latitude': 40.752299515108895, 'longitude': -73.97249054675903}","ReviewCount":"1","Rating":"4.0","ZipCode":""},{"Id":"EFihj7vsRRXiF5la-UURyw","Name":"Hop Kee","Cuisine":"Chinese","Address":"21 Mott St New York, NY 10013","Coordinates":"{'latitude': 40.714458, 'longitude': -73.998889}","ReviewCount":"906","Rating":"3.5","ZipCode":""},{"Id":"YCen62jqSWhPOAorQjSZdQ","Name":"MoonHouse","Cuisine":"Chinese","Address":"1810 3rd Ave New York, NY 10029","Coordinates":"{'latitude': 40.788337, 'longitude': -73.947502}","ReviewCount":"120","Rating":"3.5","ZipCode":""},{"Id":"QU_ljYO36XAj1Oen-iWRiA","Name":"Hua Cheng Restaurant","Cuisine":"Chinese","Address":"578 9th Ave New York, NY 10036","Coordinates":"{'latitude': 40.75839368535044, 'longitude': -73.99257338862277}","ReviewCount":"5","Rating":"3.0","ZipCode":""},{"Id":"kiRGyWovmi3vMPJ4sJudHg","Name":"Golden Wonton King","Cuisine":"Chinese","Address":"154-01 Northern Blvd Flushing, NY 11354","Coordinates":"{'latitude': 40.76489, 'longitude': -73.81072}","ReviewCount":"104","Rating":"4.0","ZipCode":""},{"Id":"xLJnT-pB4VECJzmUf1Whpg","Name":"3 Times","Cuisine":"Chinese","Address":"90 Clinton St New York, NY 10002","Coordinates":"{'latitude': 40.718271, 'longitude': -73.985209}","ReviewCount":"221","Rating":"4.0","ZipCode":""},{"Id":"IQ91FltwJmIPhS6fKKf2pw","Name":"China 1 Kitchen","Cuisine":"Chinese","Address":"609 Main St New York, NY 10044","Coordinates":"{'latitude': 40.7632023290684, 'longitude': -73.9490040654764}","ReviewCount":"71","Rating":"3.0","ZipCode":""},{"Id":"bAMTBEztHz4zQqYiIyzf4w","Name":"ChongQing Lao Zao","Cuisine":"Chinese","Address":"37-04 Prince St Flushing, NY 11354","Coordinates":"{'latitude': 40.76065, 'longitude': -73.83304}","ReviewCount":"287","Rating":"4.5","ZipCode":""},{"Id":"MzA6gitJKqfW4VrdS7AiQw","Name":"PACIFIC MOON","Cuisine":"Chinese","Address":"59-02 Broadway Woodside, NY 11377","Coordinates":"{'latitude': 40.75119, 'longitude': -73.90269}","ReviewCount":"118","Rating":"4.0","ZipCode":""},{"Id":"WgKr_bw7KRAdblaLrWw5Lg","Name":"Chong Qing Wharf","Cuisine":"Chinese","Address":"6324 Fort Hamilton Pkwy Brooklyn, NY 11219","Coordinates":"{'latitude': 40.63137085498639, 'longitude': -74.00851908604734}","ReviewCount":"127","Rating":"4.5","ZipCode":""},{"Id":"CesS-E8Q3ztX6VnkXO6wBg","Name":"Chinese Tuxedo","Cuisine":"Chinese","Address":"5 Doyers St New York, NY 10013","Coordinates":"{'latitude': 40.7143299, 'longitude': -73.99804}","ReviewCount":"478","Rating":"4.0","ZipCode":""},{"Id":"Aeiyyowii5GBL9Y-SjTxvg","Name":"Xin Lin Chinese Restaurant","Cuisine":"Chinese","Address":"4507 Park Ave Ste A Union City, NJ 07087","Coordinates":"{'latitude': 40.77735, 'longitude': -74.0187399}","ReviewCount":"28","Rating":"4.0","ZipCode":""},{"Id":"VaDTMmv1Yq7A4xBhd1Mb_Q","Name":"Sanyuu West","Cuisine":"Chinese","Address":"228 W 18th St New York, NY 10011","Coordinates":"{'latitude': 40.74156, 'longitude': -73.99932}","ReviewCount":"100","Rating":"4.5","ZipCode":""},{"Id":"br6HJD_UZ_LSU36tBZGSuw","Name":"Tada Noodles","Cuisine":"Chinese","Address":"2323 Borden Ave Long Island City, NY 11101","Coordinates":"{'latitude': 40.740157, 'longitude': -73.946535}","ReviewCount":"49","Rating":"4.0","ZipCode":""},{"Id":"tS4aiWBYgzlqKX898jr3_w","Name":"Shun Wang","Cuisine":"Chinese","Address":"81-25 Broadway Elmhurst, NY 11373","Coordinates":"{'latitude': 40.7431373596191, 'longitude': -73.8830413818359}","ReviewCount":"209","Rating":"4.0","ZipCode":""},{"Id":"MMuhdLdOcQ5Ghtr0V_BwIg","Name":"Zou's","Cuisine":"Chinese","Address":"38-14 Prince St Flushing, NY 11354","Coordinates":"{'latitude': 40.75981, 'longitude': -73.83262}","ReviewCount":"38","Rating":"4.5","ZipCode":""},{"Id":"w0pDi_iMZd5MqYQ7t5q1dQ","Name":"Golden Woks","Cuisine":"Chinese","Address":"159 Christopher St New York, NY 10014","Coordinates":"{'latitude': 40.73284, 'longitude': -74.00836}","ReviewCount":"74","Rating":"3.5","ZipCode":""},{"Id":"bGOZTD9O00OkVA1Pkt3OuQ","Name":"A A Jing","Cuisine":"Chinese","Address":"689 9th Ave New York, NY 10036","Coordinates":"{'latitude': 40.762, 'longitude': -73.99041}","ReviewCount":"300","Rating":"3.5","ZipCode":""},{"Id":"F1rDyOzC5ygMEi5EuWUHAQ","Name":"Mala Project","Cuisine":"Chinese","Address":"603 Manhattan Ave Brooklyn, NY 11222","Coordinates":"{'latitude': 40.723219, 'longitude': -73.950619}","ReviewCount":"10","Rating":"3.0","ZipCode":""},{"Id":"xtxcAUvrD4dWHJd0cwvW1A","Name":"JeJu Noodle Bar","Cuisine":"Chinese","Address":"679 Greenwich St New York, NY 10014","Coordinates":"{'latitude': 40.73304, 'longitude': -74.00734}","ReviewCount":"1000","Rating":"4.0","ZipCode":""},{"Id":"JyYt8w1RpjDbITsE40eLfA","Name":"E Noodle Chinatown","Cuisine":"Chinese","Address":"26 Jefferson St New York, NY 10002","Coordinates":"{'latitude': 40.71329, 'longitude': -73.98869}","ReviewCount":"24","Rating":"4.5","ZipCode":""},{"Id":"xVPTI1ytXt2PLU-strKcnw","Name":"Gem Bistro","Cuisine":"Chinese","Address":"10 Schuyler Ave Kearny, NJ 07032","Coordinates":"{'latitude': 40.748554, 'longitude': -74.144834}","ReviewCount":"32","Rating":"4.5","ZipCode":""},{"Id":"A5MHd0GjEb4P86UsNzUnig","Name":"SESAMO - Italian Asian Restaurant Hell's Kitchen NYC","Cuisine":"Chinese","Address":"764 10th Ave New York, NY 10019","Coordinates":"{'latitude': 40.765726, 'longitude': -73.990678}","ReviewCount":"343","Rating":"4.0","ZipCode":""},{"Id":"K0qsGnFv-edPDqVBdLCocQ","Name":"China Garden","Cuisine":"Chinese","Address":"39-20 47th Ave Sunnyside, NY 11104","Coordinates":"{'latitude': 40.74166, 'longitude': -73.92577}","ReviewCount":"81","Rating":"4.0","ZipCode":""},{"Id":"dv-RaOwKFizDe4c5-sVJ5w","Name":"Peking BBQ","Cuisine":"Chinese","Address":"58-11 Woodside Ave Woodside, NY 11377","Coordinates":"{'latitude': 40.7457277, 'longitude': -73.9062112}","ReviewCount":"294","Rating":"4.0","ZipCode":""},{"Id":"rcwEQN8lxHzkr-QtfH_b8Q","Name":"Seng Seafood Restaurant","Cuisine":"Chinese","Address":"39 E Broadway Fl 2 New York, NY 10002","Coordinates":"{'latitude': 40.71345, 'longitude': -73.9962}","ReviewCount":"59","Rating":"4.0","ZipCode":""},{"Id":"v0opDMezc6pKgdfR22KUnQ","Name":"Da Tang Szechuan","Cuisine":"Chinese","Address":"18 W 38th St New York, NY 10018","Coordinates":"{'latitude': 40.75128, 'longitude': -73.98376}","ReviewCount":"302","Rating":"4.5","ZipCode":""},{"Id":"0GftSP2dRwEzujkv2VKIgA","Name":"Wok Wok Southeast Asian Kitchen","Cuisine":"Chinese","Address":"11 Mott St New York, NY 10013","Coordinates":"{'latitude': 40.7140555, 'longitude': -73.9988387116394}","ReviewCount":"1195","Rating":"4.0","ZipCode":""},{"Id":"97q5nUQTuBo_h00XCxna2A","Name":"Tasty Hand-Pulled Noodles","Cuisine":"Chinese","Address":"1 Doyers St New York, NY 10013","Coordinates":"{'latitude': 40.7142, 'longitude': -73.99787}","ReviewCount":"1860","Rating":"4.0","ZipCode":""},{"Id":"tFAozE7NNbypnrr5zEt0bQ","Name":"Dim Sum Palace","Cuisine":"Chinese","Address":"27 Division St New York, NY 10002","Coordinates":"{'latitude': 40.714018, 'longitude': -73.996122}","ReviewCount":"65","Rating":"4.0","ZipCode":""},{"Id":"2rSmA4IK51QAQj60YGvjnw","Name":"New Asian Cuisine","Cuisine":"Chinese","Address":"44-20 48th Ave Woodside, NY 11377","Coordinates":"{'latitude': 40.7393524, 'longitude': -73.9210213}","ReviewCount":"37","Rating":"3.5","ZipCode":""},{"Id":"qVBvZIgDcwSFsENWD1nWKQ","Name":"3 Times","Cuisine":"Chinese","Address":"38 Water St New York, NY 10004","Coordinates":"{'latitude': 40.703438, 'longitude': -74.010705}","ReviewCount":"97","Rating":"4.0","ZipCode":""},{"Id":"azGPyK3p6HDmvQGX0AyDtg","Name":"ShabuRo","Cuisine":"Chinese","Address":"520 Bergen Blvd Ste 2 Palisades Park, NJ 07650","Coordinates":"{'latitude': 40.8480599, 'longitude': -73.98447}","ReviewCount":"608","Rating":"4.5","ZipCode":""},{"Id":"98SsKXNs37ohAQERZbBPJg","Name":"King Food Chen","Cuisine":"Chinese","Address":"489 Amsterdam Ave New York, NY 10024","Coordinates":"{'latitude': 40.7860382020165, 'longitude': -73.9760234963299}","ReviewCount":"79","Rating":"3.0","ZipCode":""},